[{"id": "piCDoicFTnVgOwQBRSjfmQ", "alias": "planet-word-museum-washington", "name": "Planet Word Museum", "image_url": "https://s3-media1.fl.yelpcdn.com/bphoto/gOcx9CLV_bDO_v9MI0Ah6Q/o.jpg", "is_closed": false, "url": "https://www.yelp.com/biz/planet-word-museum-washington?adjust_creative=dMFM0G7PB1QaTw51VlEhfg&utm_campaign=yelp_api_v3&utm_medium=api_v3_business_search&utm_source=dMFM0G7PB1QaTw51VlEhfg", "review_count": 105, "categories": [{"alias": "museums", "title": "Museums"}], "rating": 5.0, "coordinates": {"latitude": 38.90215544161241, "longitude": -77.02936952559965}, "transactions": [], "location": {"address1": "925 13th St NW", "address2": "", "address3": null, "city": "Washington, DC", "zip_code": "20005", "country": "US", "state": "DC", "display_address": ["925 13th St NW", "Washington, DC 20005"]}, "phone": "+12029313139", "display_phone": "(202) 931-3139", "distance": 1664.6823352933984}, {"id": "4G3-8BgcUR137kRduRY_RA", "alias": "library-of-congress-washington-3", "name": "Library of Congress", "image_url": "https://s3-media1.fl.yelpcdn.com/bphoto/IGcN9v5UMbB2_YKgjXhkNQ/o.jpg", "is_closed": false, "url": "https://www.yelp.com/biz/library-of-congress-washington-3?adjust_creative=dMFM0G7PB1QaTw51VlEhfg&utm_campaign=yelp_api_v3&utm_medium=api_v3_business_search&utm_source=dMFM0G7PB1QaTw51VlEhfg", "review_count": 512, "categories": [{"alias": "libraries", "title": "Libraries"}, {"alias": "landmarks", "title": "Landmarks & Historical Buildings"}], "rating": 4.5, "coordinates": {"latitude": 38.886707, "longitude": -77.004729}, "transactions": [], "location": {"address1": "101 Independence Ave SE", "address2": null, "address3": "", "city": "Washington, DC", "zip_code": "20540", "country": "US", "state": "DC", "display_address": ["101 Independence Ave SE", "Washington, DC 20540"]}, "phone": "+12027075000", "display_phone": "(202) 707-5000", "distance": 1059.3223718409783}, {"id": "PZxhHuY26pffY-3tCzpmcA", "alias": "citycenterdc-washington-2", "name": "CityCenterDC", "image_url": "https://s3-media4.fl.yelpcdn.com/bphoto/wwNMPljED3JVCi8IXOEJzA/o.jpg", "is_closed": false, "url": "https://www.yelp.com/biz/citycenterdc-washington-2?adjust_creative=dMFM0G7PB1QaTw51VlEhfg&utm_campaign=yelp_api_v3&utm_medium=api_v3_business_search&utm_source=dMFM0G7PB1QaTw51VlEhfg", "review_count": 41, "categories": [{"alias": "shoppingcenters", "title": "Shopping Centers"}], "rating": 4.5, "coordinates": {"latitude": 38.9003453313028, "longitude": -77.026482}, "transactions": [], "price": "$$$$", "location": {"address1": "800 10th St NW", "address2": "Ste 600", "address3": "", "city": "Washington, DC", "zip_code": "20001", "country": "US", "state": "DC", "display_address": ["800 10th St NW", "Ste 600", "Washington, DC 20001"]}, "phone": "+12022899000", "display_phone": "(202) 289-9000", "distance": 1343.901438222412}, {"id": "CuQx3ueZjpIppxmUE_2wbg", "alias": "united-states-botanic-garden-washington", "name": "United States Botanic Garden", "image_url": "https://s3-media3.fl.yelpcdn.com/bphoto/2QE2nlI8jl4YTbY8OBE3DA/o.jpg", "is_closed": false, "url": "https://www.yelp.com/biz/united-states-botanic-garden-washington?adjust_creative=dMFM0G7PB1QaTw51VlEhfg&utm_campaign=yelp_api_v3&utm_medium=api_v3_business_search&utm_source=dMFM0G7PB1QaTw51VlEhfg", "review_count": 537, "categories": [{"alias": "gardens", "title": "Botanical Gardens"}], "rating": 4.5, "coordinates": {"latitude": 38.88812, "longitude": -77.01288}, "transactions": [], "location": {"address1": "100 Maryland Ave SW", "address2": null, "address3": "", "city": "Washington, DC", "zip_code": "20001", "country": "US", "state": "DC", "display_address": ["100 Maryland Ave SW", "Washington, DC 20001"]}, "phone": "+12022258333", "display_phone": "(202) 225-8333", "distance": 565.9284104657124}, {"id": "u-RrR0vAXqHzYgkdxNPKkQ", "alias": "exorcist-steps-washington", "name": "Exorcist Steps", "image_url": "https://s3-media4.fl.yelpcdn.com/bphoto/39oC53_FzVdNoWdAZcg60g/o.jpg", "is_closed": false, "url": "https://www.yelp.com/biz/exorcist-steps-washington?adjust_creative=dMFM0G7PB1QaTw51VlEhfg&utm_campaign=yelp_api_v3&utm_medium=api_v3_business_search&utm_source=dMFM0G7PB1QaTw51VlEhfg", "review_count": 141, "categories": [{"alias": "localflavor", "title": "Local Flavor"}], "rating": 4.5, "coordinates": {"latitude": 38.90548137653871, "longitude": -77.07017672710191}, "transactions": [], "location": {"address1": "36TH St Nw And M St NW", "address2": "", "address3": "", "city": "Washington, DC", "zip_code": "20008", "country": "US", "state": "DC", "display_address": ["36TH St Nw And M St NW", "Washington, DC 20008"]}, "phone": "", "display_phone": "", "distance": 5042.615675708497}, {"id": "4yHn40qEBW3frxTZfDyH3Q", "alias": "smithsonian-national-museum-of-natural-history-washington", "name": "Smithsonian National Museum of Natural History", "image_url": "https://s3-media2.fl.yelpcdn.com/bphoto/Xhnl1qVdBQEXB7xVWgOdMw/o.jpg", "is_closed": false, "url": "https://www.yelp.com/biz/smithsonian-national-museum-of-natural-history-washington?adjust_creative=dMFM0G7PB1QaTw51VlEhfg&utm_campaign=yelp_api_v3&utm_medium=api_v3_business_search&utm_source=dMFM0G7PB1QaTw51VlEhfg", "review_count": 1211, "categories": [{"alias": "museums", "title": "Museums"}], "rating": 4.5, "coordinates": {"latitude": 38.891608, "longitude": -77.026136}, "transactions": [], "location": {"address1": "1000 Constitution Ave NW", "address2": "", "address3": "", "city": "Washington, DC", "zip_code": "20004", "country": "US", "state": "DC", "display_address": ["1000 Constitution Ave NW", "Washington, DC 20004"]}, "phone": "+12026331000", "display_phone": "(202) 633-1000", "distance": 1047.7849409609075}, {"id": "smZtIQhc_nFMDDfHW4zEVA", "alias": "national-mall-washington", "name": "National Mall", "image_url": "https://s3-media2.fl.yelpcdn.com/bphoto/rvMZxrDAhtjA073Y9Ure_A/o.jpg", "is_closed": false, "url": "https://www.yelp.com/biz/national-mall-washington?adjust_creative=dMFM0G7PB1QaTw51VlEhfg&utm_campaign=yelp_api_v3&utm_medium=api_v3_business_search&utm_source=dMFM0G7PB1QaTw51VlEhfg", "review_count": 423, "categories": [{"alias": "landmarks", "title": "Landmarks & Historical Buildings"}], "rating": 4.5, "coordinates": {"latitude": 38.889552, "longitude": -77.023089}, "transactions": [], "location": {"address1": "Constitution Ave NW", "address2": "", "address3": "", "city": "Washington, DC", "zip_code": "20565", "country": "US", "state": "DC", "display_address": ["Constitution Ave NW", "Washington, DC 20565"]}, "phone": "+12024859880", "display_phone": "(202) 485-9880", "distance": 862.136555576824}, {"id": "QftxMXv9Bgtx1sHNelExDg", "alias": "smithsonian-national-zoological-park-washington-2", "name": "Smithsonian National Zoological Park", "image_url": "https://s3-media1.fl.yelpcdn.com/bphoto/eglUCLiy_ypQciohkSJmQg/o.jpg", "is_closed": false, "url": "https://www.yelp.com/biz/smithsonian-national-zoological-park-washington-2?adjust_creative=dMFM0G7PB1QaTw51VlEhfg&utm_campaign=yelp_api_v3&utm_medium=api_v3_business_search&utm_source=dMFM0G7PB1QaTw51VlEhfg", "review_count": 1223, "categories": [{"alias": "zoos", "title": "Zoos"}], "rating": 4.0, "coordinates": {"latitude": 38.92962351965926, "longitude": -77.04978441947226}, "transactions": [], "location": {"address1": "3001 Connecticut Ave NW", "address2": "", "address3": "", "city": "Washington, DC", "zip_code": "20008", "country": "US", "state": "DC", "display_address": ["3001 Connecticut Ave NW", "Washington, DC 20008"]}, "phone": "+12026334888", "display_phone": "(202) 633-4888", "distance": 5108.233053511701}, {"id": "YqvnRwMPIsfDraHup-94PA", "alias": "international-spy-museum-washington-2", "name": "International Spy Museum", "image_url": "https://s3-media2.fl.yelpcdn.com/bphoto/wRrl9HVeJLP357m8DLisSg/o.jpg", "is_closed": false, "url": "https://www.yelp.com/biz/international-spy-museum-washington-2?adjust_creative=dMFM0G7PB1QaTw51VlEhfg&utm_campaign=yelp_api_v3&utm_medium=api_v3_business_search&utm_source=dMFM0G7PB1QaTw51VlEhfg", "review_count": 1137, "categories": [{"alias": "museums", "title": "Museums"}], "rating": 3.5, "coordinates": {"latitude": 38.8841507, "longitude": -77.0255748}, "transactions": [], "location": {"address1": "700 L'enfant Plz SW", "address2": "", "address3": "", "city": "Washington, DC", "zip_code": "20024", "country": "US", "state": "DC", "display_address": ["700 L'enfant Plz SW", "Washington, DC 20024"]}, "phone": "+12023937798", "display_phone": "(202) 393-7798", "distance": 1393.5598446264626}, {"id": "N_EfmPgWedQ_t0TwLfs6cA", "alias": "eastern-market-washington", "name": "Eastern Market", "image_url": "https://s3-media1.fl.yelpcdn.com/bphoto/wPR7G8z29DN5qlquQ884qg/o.jpg", "is_closed": false, "url": "https://www.yelp.com/biz/eastern-market-washington?adjust_creative=dMFM0G7PB1QaTw51VlEhfg&utm_campaign=yelp_api_v3&utm_medium=api_v3_business_search&utm_source=dMFM0G7PB1QaTw51VlEhfg", "review_count": 585, "categories": [{"alias": "publicmarkets", "title": "Public Markets"}], "rating": 4.0, "coordinates": {"latitude": 38.8866569262236, "longitude": -76.996693611145}, "transactions": [], "price": "$$", "location": {"address1": "225 7th St SE", "address2": "", "address3": "", "city": "Washington, DC", "zip_code": "20003", "country": "US", "state": "DC", "display_address": ["225 7th St SE", "Washington, DC 20003"]}, "phone": "+12026985253", "display_phone": "(202) 698-5253", "distance": 1667.668115275363}, {"id": "Wb9WGCzvlw5fVGgddimzVA", "alias": "the-white-house-washington", "name": "The White House", "image_url": "https://s3-media1.fl.yelpcdn.com/bphoto/_T_vDmmYWEYfJI-mxSwu2g/o.jpg", "is_closed": false, "url": "https://www.yelp.com/biz/the-white-house-washington?adjust_creative=dMFM0G7PB1QaTw51VlEhfg&utm_campaign=yelp_api_v3&utm_medium=api_v3_business_search&utm_source=dMFM0G7PB1QaTw51VlEhfg", "review_count": 689, "categories": [{"alias": "landmarks", "title": "Landmarks & Historical Buildings"}], "rating": 4.0, "coordinates": {"latitude": 38.89768, "longitude": -77.03655}, "transactions": [], "location": {"address1": "1600 Pennsylvania Ave NW", "address2": "", "address3": null, "city": "Washington, DC", "zip_code": "20500", "country": "US", "state": "DC", "display_address": ["1600 Pennsylvania Ave NW", "Washington, DC 20500"]}, "phone": "", "display_phone": "", "distance": 2009.5601677442512}, {"id": "EIenjUykvfWCNFtPMSHCsw", "alias": "lincoln-memorial-washington-2", "name": "Lincoln Memorial", "image_url": "https://s3-media2.fl.yelpcdn.com/bphoto/2H3ZQ591IwS7-9TRdZFGQQ/o.jpg", "is_closed": false, "url": "https://www.yelp.com/biz/lincoln-memorial-washington-2?adjust_creative=dMFM0G7PB1QaTw51VlEhfg&utm_campaign=yelp_api_v3&utm_medium=api_v3_business_search&utm_source=dMFM0G7PB1QaTw51VlEhfg", "review_count": 1177, "categories": [{"alias": "landmarks", "title": "Landmarks & Historical Buildings"}], "rating": 5.0, "coordinates": {"latitude": 38.8893459813715, "longitude": -77.0502001422584}, "transactions": [], "location": {"address1": "Lincoln Memorial Cir NW", "address2": "", "address3": "", "city": "Washington, DC", "zip_code": "20002", "country": "US", "state": "DC", "display_address": ["Lincoln Memorial Cir NW", "Washington, DC 20002"]}, "phone": "+12024266841", "display_phone": "(202) 426-6841", "distance": 3145.3683946246374}, {"id": "XPj1-k8FndBFvIkU4SE-8w", "alias": "artechouse-dc-washington-6", "name": "ARTECHOUSE DC", "image_url": "https://s3-media2.fl.yelpcdn.com/bphoto/cx8uk1In3gyzr_Q-ghlzhQ/o.jpg", "is_closed": false, "url": "https://www.yelp.com/biz/artechouse-dc-washington-6?adjust_creative=dMFM0G7PB1QaTw51VlEhfg&utm_campaign=yelp_api_v3&utm_medium=api_v3_business_search&utm_source=dMFM0G7PB1QaTw51VlEhfg", "review_count": 640, "categories": [{"alias": "galleries", "title": "Art Galleries"}, {"alias": "artmuseums", "title": "Art Museums"}], "rating": 3.5, "coordinates": {"latitude": 38.88393, "longitude": -77.02951}, "transactions": [], "price": "$$", "location": {"address1": "1238 Maryland Ave SW", "address2": "", "address3": null, "city": "Washington, DC", "zip_code": "20024", "country": "US", "state": "DC", "display_address": ["1238 Maryland Ave SW", "Washington, DC 20024"]}, "phone": "", "display_phone": "", "distance": 1633.8002883725226}, {"id": "iD7F-j5XvDB7a1eDuwPGQw", "alias": "united-states-holocaust-memorial-museum-washington", "name": "United States Holocaust Memorial Museum", "image_url": "https://s3-media4.fl.yelpcdn.com/bphoto/p-9RSvUc98fz4pHY5pP1hA/o.jpg", "is_closed": false, "url": "https://www.yelp.com/biz/united-states-holocaust-memorial-museum-washington?adjust_creative=dMFM0G7PB1QaTw51VlEhfg&utm_campaign=yelp_api_v3&utm_medium=api_v3_business_search&utm_source=dMFM0G7PB1QaTw51VlEhfg", "review_count": 855, "categories": [{"alias": "museums", "title": "Museums"}], "rating": 4.5, "coordinates": {"latitude": 38.886664736668, "longitude": -77.032680915553}, "transactions": [], "location": {"address1": "100 Raoul Wallenberg Pl SW", "address2": "", "address3": "", "city": "Washington, DC", "zip_code": "20024", "country": "US", "state": "DC", "display_address": ["100 Raoul Wallenberg Pl SW", "Washington, DC 20024"]}, "phone": "+12024880400", "display_phone": "(202) 488-0400", "distance": 1750.4513757615473}, {"id": "HBOEcKBWvSgo9KHHX2Syrg", "alias": "the-wharf-dc-washington", "name": "The Wharf DC", "image_url": "https://s3-media3.fl.yelpcdn.com/bphoto/nk-VvqLE3VW5BK2oOYaxpw/o.jpg", "is_closed": false, "url": "https://www.yelp.com/biz/the-wharf-dc-washington?adjust_creative=dMFM0G7PB1QaTw51VlEhfg&utm_campaign=yelp_api_v3&utm_medium=api_v3_business_search&utm_source=dMFM0G7PB1QaTw51VlEhfg", "review_count": 340, "categories": [{"alias": "landmarks", "title": "Landmarks & Historical Buildings"}, {"alias": "nightlife", "title": "Nightlife"}, {"alias": "arts", "title": "Arts & Entertainment"}], "rating": 4.0, "coordinates": {"latitude": 38.87923, "longitude": -77.02392}, "transactions": [], "price": "$$", "location": {"address1": "760 Maine Ave SW", "address2": "", "address3": "", "city": "Washington, DC", "zip_code": "20024", "country": "US", "state": "DC", "display_address": ["760 Maine Ave SW", "Washington, DC 20024"]}, "phone": "+12026883590", "display_phone": "(202) 688-3590", "distance": 1748.7102374250267}, {"id": "mUyVr1BJKhLdjrxzoVtq2A", "alias": "hirshhorn-museum-and-sculpture-garden-washington-2", "name": "Hirshhorn Museum & Sculpture Garden", "image_url": "https://s3-media1.fl.yelpcdn.com/bphoto/vaMpBX4FFlFw3KeZzNzcdw/o.jpg", "is_closed": false, "url": "https://www.yelp.com/biz/hirshhorn-museum-and-sculpture-garden-washington-2?adjust_creative=dMFM0G7PB1QaTw51VlEhfg&utm_campaign=yelp_api_v3&utm_medium=api_v3_business_search&utm_source=dMFM0G7PB1QaTw51VlEhfg", "review_count": 482, "categories": [{"alias": "galleries", "title": "Art Galleries"}, {"alias": "artmuseums", "title": "Art Museums"}, {"alias": "arttours", "title": "Art Tours"}], "rating": 4.5, "coordinates": {"latitude": 38.8881190707804, "longitude": -77.022978883606}, "transactions": [], "price": "$", "location": {"address1": "7th St & Independence Ave Sw", "address2": "", "address3": "", "city": "Washington, DC", "zip_code": "20560", "country": "US", "state": "DC", "display_address": ["7th St & Independence Ave Sw", "Washington, DC 20560"]}, "phone": "+12026331000", "display_phone": "(202) 633-1000", "distance": 935.8682998414188}, {"id": "rQ_9Sm76CMofZQ8fkANuKQ", "alias": "the-view-of-dc-arlington", "name": "The View of DC", "image_url": "https://s3-media2.fl.yelpcdn.com/bphoto/ykFpvKtOSAwPTCD_nU6tqQ/o.jpg", "is_closed": false, "url": "https://www.yelp.com/biz/the-view-of-dc-arlington?adjust_creative=dMFM0G7PB1QaTw51VlEhfg&utm_campaign=yelp_api_v3&utm_medium=api_v3_business_search&utm_source=dMFM0G7PB1QaTw51VlEhfg", "review_count": 54, "categories": [{"alias": "observatories", "title": "Observatories"}, {"alias": "venues", "title": "Venues & Event Spaces"}], "rating": 4.0, "coordinates": {"latitude": 38.895595, "longitude": -77.07149759386593}, "transactions": [], "location": {"address1": "1201 Wilson Blvd", "address2": "Ste 115", "address3": null, "city": "Arlington", "zip_code": "22209", "country": "US", "state": "VA", "display_address": ["1201 Wilson Blvd", "Ste 115", "Arlington, VA 22209"]}, "phone": "+17037694690", "display_phone": "(703) 769-4690", "distance": 4970.6349676467335}, {"id": "KVcGvgj_p4rQmmAYOV14jA", "alias": "national-portrait-gallery-washington-3", "name": "National Portrait Gallery", "image_url": "https://s3-media1.fl.yelpcdn.com/bphoto/YkNom2ihPNqrhdRc-peZ_g/o.jpg", "is_closed": false, "url": "https://www.yelp.com/biz/national-portrait-gallery-washington-3?adjust_creative=dMFM0G7PB1QaTw51VlEhfg&utm_campaign=yelp_api_v3&utm_medium=api_v3_business_search&utm_source=dMFM0G7PB1QaTw51VlEhfg", "review_count": 656, "categories": [{"alias": "artmuseums", "title": "Art Museums"}], "rating": 4.5, "coordinates": {"latitude": 38.897871, "longitude": -77.023054}, "transactions": [], "location": {"address1": "8TH St And F St NW", "address2": "", "address3": "", "city": "Washington, DC", "zip_code": "20001", "country": "US", "state": "DC", "display_address": ["8TH St And F St NW", "Washington, DC 20001"]}, "phone": "+12026338300", "display_phone": "(202) 633-8300", "distance": 941.8289859178215}, {"id": "PzN1JbGWEYMaNqYTuIe51Q", "alias": "national-harbor-national-harbor", "name": "National Harbor", "image_url": "https://s3-media3.fl.yelpcdn.com/bphoto/ppZyNiYppCURZhY6pIPMmg/o.jpg", "is_closed": false, "url": "https://www.yelp.com/biz/national-harbor-national-harbor?adjust_creative=dMFM0G7PB1QaTw51VlEhfg&utm_campaign=yelp_api_v3&utm_medium=api_v3_business_search&utm_source=dMFM0G7PB1QaTw51VlEhfg", "review_count": 461, "categories": [{"alias": "landmarks", "title": "Landmarks & Historical Buildings"}], "rating": 3.5, "coordinates": {"latitude": 38.7858403, "longitude": -77.0160199}, "transactions": [], "location": {"address1": "165 Waterfront St", "address2": "", "address3": "", "city": "National Harbor", "zip_code": "20745", "country": "US", "state": "MD", "display_address": ["165 Waterfront St", "National Harbor, MD 20745"]}, "phone": "+18776285427", "display_phone": "(877) 628-5427", "distance": 11915.535587314966}, {"id": "vx_gQiMFiCGKdgeh3MuDqQ", "alias": "georgetown-waterfront-park-washington", "name": "Georgetown Waterfront Park", "image_url": "https://s3-media2.fl.yelpcdn.com/bphoto/6vCvy1M7L8xUqpyyHr_z7w/o.jpg", "is_closed": false, "url": "https://www.yelp.com/biz/georgetown-waterfront-park-washington?adjust_creative=dMFM0G7PB1QaTw51VlEhfg&utm_campaign=yelp_api_v3&utm_medium=api_v3_business_search&utm_source=dMFM0G7PB1QaTw51VlEhfg", "review_count": 112, "categories": [{"alias": "parks", "title": "Parks"}], "rating": 4.5, "coordinates": {"latitude": 38.902425183455, "longitude": -77.063186886882}, "transactions": [], "location": {"address1": "3000 K St NW", "address2": "", "address3": "Potomac River", "city": "Washington, DC", "zip_code": "20007", "country": "US", "state": "DC", "display_address": ["3000 K St NW", "Potomac River", "Washington, DC 20007"]}, "phone": "+12029444545", "display_phone": "(202) 944-4545", "distance": 4370.544784558976}]