[
        
        {"id": "QgDzlrWN-IcYyyT3M9hgoA", 
        "alias": "quincy-market-boston-2", 
        "name": "Quincy Market", 
        "image_url": "https://s3-media4.fl.yelpcdn.com/bphoto/fI0UwRXxwRo9yh3jRNI8OA/o.jpg", 
        "is_closed": false, 
        "url": "https://www.yelp.com/biz/quincy-market-boston-2?adjust_creative=dMFM0G7PB1QaTw51VlEhfg&utm_campaign=yelp_api_v3&utm_medium=api_v3_business_search&utm_source=dMFM0G7PB1QaTw51VlEhfg", 
        "review_count": 812, "categories": [{"alias": "publicmarkets", "title": "Public Markets"}], 
        "rating": 4.0, 
        "coordinates": {"latitude": 42.3601450332, "longitude": -71.0556999665}, 
        "transactions": [], 
        "price": "$$", 
        "location": {"address1": "4 S Market St", "address2": "", "address3": "", "city": "Boston", "zip_code": "02109", "country": "US", "state": "MA", "display_address": ["4 S Market St", "Boston, MA 02109"]}, 
        "phone": "+16175231300", 
        "display_phone": "(617) 523-1300", 
        "distance": 1871.6133222300084}, 


{"id": "6aQ3FGZYJ506O1qHQUvC5Q", "alias": "boston-tea-party-ships-and-museum-boston", "name": "Boston Tea Party Ships & Museum", "image_url": "https://s3-media1.fl.yelpcdn.com/bphoto/SZcyx2JoF-X0HpMh0vqLSw/o.jpg", "is_closed": false, "url": "https://www.yelp.com/biz/boston-tea-party-ships-and-museum-boston?adjust_creative=dMFM0G7PB1QaTw51VlEhfg&utm_campaign=yelp_api_v3&utm_medium=api_v3_business_search&utm_source=dMFM0G7PB1QaTw51VlEhfg", "review_count": 513, "categories": [{"alias": "museums", "title": "Museums"}, {"alias": "tours", "title": "Tours"}, {"alias": "venues", "title": "Venues & Event Spaces"}], "rating": 4.5, "coordinates": {"latitude": 42.35212925530771, "longitude": -71.05133009412067}, "transactions": [], "location": {"address1": "306 Congress St", "address2": "", "address3": "", "city": "Boston", "zip_code": "02210", "country": "US", "state": "MA", "display_address": ["306 Congress St", "Boston, MA 02210"]}, "phone": "+16173381773", "display_phone": "(617) 338-1773", "distance": 1704.4570426570479}, {"id": "VFRPpw6sH4Jq4yIsNpPJjQ", "alias": "the-lawn-on-d-boston", "name": "The Lawn On D", "image_url": "https://s3-media4.fl.yelpcdn.com/bphoto/AfTd_VTQ6f7904atxhyTuQ/o.jpg", "is_closed": false, "url": "https://www.yelp.com/biz/the-lawn-on-d-boston?adjust_creative=dMFM0G7PB1QaTw51VlEhfg&utm_campaign=yelp_api_v3&utm_medium=api_v3_business_search&utm_source=dMFM0G7PB1QaTw51VlEhfg", "review_count": 161, "categories": [{"alias": "venues", "title": "Venues & Event Spaces"}, {"alias": "parks", "title": "Parks"}], "rating": 4.0, "coordinates": {"latitude": 42.34445, "longitude": -71.04488}, "transactions": [], "location": {"address1": "420 D St", "address2": "", "address3": "", "city": "Boston", "zip_code": "02210", "country": "US", "state": "MA", "display_address": ["420 D St", "Boston, MA 02210"]}, "phone": "+18773933393", "display_phone": "(877) 393-3393", "distance": 2173.8564445544525}, {"id": "as_QY5nUx68cXfiECGsfPg", "alias": "boston-duck-tours-boston-3", "name": "Boston Duck Tours", "image_url": "https://s3-media4.fl.yelpcdn.com/bphoto/upjwsz3Oi1I9TIlx795DNg/o.jpg", "is_closed": false, "url": "https://www.yelp.com/biz/boston-duck-tours-boston-3?adjust_creative=dMFM0G7PB1QaTw51VlEhfg&utm_campaign=yelp_api_v3&utm_medium=api_v3_business_search&utm_source=dMFM0G7PB1QaTw51VlEhfg", "review_count": 1034, "categories": [{"alias": "tours", "title": "Tours"}], "rating": 4.5, "coordinates": {"latitude": 42.3472384141922, "longitude": -71.0792699923839}, "transactions": [], "location": {"address1": "4 Copley Pl", "address2": "Ste 4155", "address3": "", "city": "Boston", "zip_code": "02116", "country": "US", "state": "MA", "display_address": ["4 Copley Pl", "Ste 4155", "Boston, MA 02116"]}, "phone": "+16174500068", "display_phone": "(617) 450-0068", "distance": 663.0449690115605}, {"id": "ypfGk8Z6Blg_hTx76myIqw", "alias": "freedom-trail-foundation-boston-3", "name": "Freedom Trail\u00ae Foundation", "image_url": "https://s3-media1.fl.yelpcdn.com/bphoto/dETOrV5BODPux_-ZB3W4kw/o.jpg", "is_closed": false, "url": "https://www.yelp.com/biz/freedom-trail-foundation-boston-3?adjust_creative=dMFM0G7PB1QaTw51VlEhfg&utm_campaign=yelp_api_v3&utm_medium=api_v3_business_search&utm_source=dMFM0G7PB1QaTw51VlEhfg", "review_count": 852, "categories": [{"alias": "historicaltours", "title": "Historical Tours"}, {"alias": "nonprofit", "title": "Community Service/Non-Profit"}], "rating": 4.5, "coordinates": {"latitude": 42.357599, "longitude": -71.05969369411473}, "transactions": [], "location": {"address1": "44 School St", "address2": "Ste 250", "address3": "", "city": "Boston", "zip_code": "02108", "country": "US", "state": "MA", "display_address": ["44 School St", "Ste 250", "Boston, MA 02108"]}, "phone": "+16173578300", "display_phone": "(617) 357-8300", "distance": 1441.4897349690964}, {"id": "VImbIWfxODVsiRHebSQePw", "alias": "samuel-adams-boston-brewery-boston", "name": "Samuel Adams Boston Brewery", "image_url": "https://s3-media4.fl.yelpcdn.com/bphoto/F-DK8bPDwVifk2kjNGkxjA/o.jpg", "is_closed": false, "url": "https://www.yelp.com/biz/samuel-adams-boston-brewery-boston?adjust_creative=dMFM0G7PB1QaTw51VlEhfg&utm_campaign=yelp_api_v3&utm_medium=api_v3_business_search&utm_source=dMFM0G7PB1QaTw51VlEhfg", "review_count": 1507, "categories": [{"alias": "breweries", "title": "Breweries"}], "rating": 4.5, "coordinates": {"latitude": 42.3144647, "longitude": -71.1031}, "transactions": [], "price": "$$", "location": {"address1": "30 Germania St", "address2": "", "address3": "", "city": "Boston", "zip_code": "02130", "country": "US", "state": "MA", "display_address": ["30 Germania St", "Boston, MA 02130"]}, "phone": "+16173685080", "display_phone": "(617) 368-5080", "distance": 4542.212240142859}, {"id": "QFq8CccuRrEq9MsTUCnD9Q", "alias": "boston-common-boston", "name": "Boston Common", "image_url": "https://s3-media2.fl.yelpcdn.com/bphoto/t_-RWeACkO2cH1-hXlqrRA/o.jpg", "is_closed": false, "url": "https://www.yelp.com/biz/boston-common-boston?adjust_creative=dMFM0G7PB1QaTw51VlEhfg&utm_campaign=yelp_api_v3&utm_medium=api_v3_business_search&utm_source=dMFM0G7PB1QaTw51VlEhfg", "review_count": 511, "categories": [{"alias": "parks", "title": "Parks"}], "rating": 4.5, "coordinates": {"latitude": 42.3553726380041, "longitude": -71.0657501220703}, "transactions": [], "location": {"address1": "Beacon St", "address2": null, "address3": "", "city": "Boston", "zip_code": "02139", "country": "US", "state": "MA", "display_address": ["Beacon St", "Boston, MA 02139"]}, "phone": "+13045634951", "display_phone": "(304) 563-4951", "distance": 951.3189987014778}, {"id": "8_91dxiY4bbBds5Y8S-8kw", "alias": "museum-of-bad-art-brookline", "name": "Museum of Bad Art", "image_url": "https://s3-media3.fl.yelpcdn.com/bphoto/pFu6VxJV-A-4gsN24u0GuA/o.jpg", "is_closed": false, "url": "https://www.yelp.com/biz/museum-of-bad-art-brookline?adjust_creative=dMFM0G7PB1QaTw51VlEhfg&utm_campaign=yelp_api_v3&utm_medium=api_v3_business_search&utm_source=dMFM0G7PB1QaTw51VlEhfg", "review_count": 55, "categories": [{"alias": "artmuseums", "title": "Art Museums"}], "rating": 4.0, "coordinates": {"latitude": 42.332201, "longitude": -71.115821}, "transactions": [], "location": {"address1": "2 Brookline Place", "address2": null, "address3": null, "city": "Brookline", "zip_code": "02445", "country": "US", "state": "MA", "display_address": ["2 Brookline Place", "Brookline, MA 02445"]}, "phone": "+17814446757", "display_phone": "(781) 444-6757", "distance": 4046.5477622093167}, {"id": "MTGPiWQ0QS5IGjbBmZwTZQ", "alias": "harvard-museum-of-natural-history-cambridge", "name": "Harvard Museum of Natural History", "image_url": "https://s3-media3.fl.yelpcdn.com/bphoto/wGpzB8OgRaXXxnDpwUrZiQ/o.jpg", "is_closed": false, "url": "https://www.yelp.com/biz/harvard-museum-of-natural-history-cambridge?adjust_creative=dMFM0G7PB1QaTw51VlEhfg&utm_campaign=yelp_api_v3&utm_medium=api_v3_business_search&utm_source=dMFM0G7PB1QaTw51VlEhfg", "review_count": 220, "categories": [{"alias": "museums", "title": "Museums"}], "rating": 4.5, "coordinates": {"latitude": 42.378365, "longitude": -71.11603671}, "transactions": [], "location": {"address1": "26 Oxford St", "address2": null, "address3": "", "city": "Cambridge", "zip_code": "02138", "country": "US", "state": "MA", "display_address": ["26 Oxford St", "Cambridge, MA 02138"]}, "phone": "+16174953045", "display_phone": "(617) 495-3045", "distance": 5006.371233451966}, {"id": "Z6TxNESBcQu7P0bm_F1RrQ", "alias": "boston-public-library-boston", "name": "Boston Public Library", "image_url": "https://s3-media3.fl.yelpcdn.com/bphoto/l_HPDvHzhknpVwi0EM4GzQ/o.jpg", "is_closed": false, "url": "https://www.yelp.com/biz/boston-public-library-boston?adjust_creative=dMFM0G7PB1QaTw51VlEhfg&utm_campaign=yelp_api_v3&utm_medium=api_v3_business_search&utm_source=dMFM0G7PB1QaTw51VlEhfg", "review_count": 564, "categories": [{"alias": "libraries", "title": "Libraries"}], "rating": 4.5, "coordinates": {"latitude": 42.3496179007241, "longitude": -71.0775961148307}, "transactions": [], "location": {"address1": "700 Boylston St", "address2": "", "address3": "", "city": "Boston", "zip_code": "02116", "country": "US", "state": "MA", "display_address": ["700 Boylston St", "Boston, MA 02116"]}, "phone": "+16175365400", "display_phone": "(617) 536-5400", "distance": 558.1822052145608}, {"id": "oUvH_zYhhYYHYcMusCf6RQ", "alias": "christopher-columbus-waterfront-park-boston", "name": "Christopher Columbus Waterfront Park", "image_url": "https://s3-media3.fl.yelpcdn.com/bphoto/3_llyYAQvRdMtEgaRkYu_Q/o.jpg", "is_closed": false, "url": "https://www.yelp.com/biz/christopher-columbus-waterfront-park-boston?adjust_creative=dMFM0G7PB1QaTw51VlEhfg&utm_campaign=yelp_api_v3&utm_medium=api_v3_business_search&utm_source=dMFM0G7PB1QaTw51VlEhfg", "review_count": 94, "categories": [{"alias": "parks", "title": "Parks"}, {"alias": "playgrounds", "title": "Playgrounds"}], "rating": 4.5, "coordinates": {"latitude": 42.3616582704001, "longitude": -71.0519084931724}, "transactions": [], "location": {"address1": "Atlantic Ave & Richmond St", "address2": "", "address3": "", "city": "Boston", "zip_code": "02109", "country": "US", "state": "MA", "display_address": ["Atlantic Ave & Richmond St", "Boston, MA 02109"]}, "phone": "+16176354505", "display_phone": "(617) 635-4505", "distance": 2208.4481587646346}, {"id": "WF4uLf1GR9rDiubrdRnzFw", "alias": "fenway-park-boston", "name": "Fenway Park", "image_url": "https://s3-media2.fl.yelpcdn.com/bphoto/N3Eex-uC1t2_B4B4dJb3_Q/o.jpg", "is_closed": false, "url": "https://www.yelp.com/biz/fenway-park-boston?adjust_creative=dMFM0G7PB1QaTw51VlEhfg&utm_campaign=yelp_api_v3&utm_medium=api_v3_business_search&utm_source=dMFM0G7PB1QaTw51VlEhfg", "review_count": 1405, "categories": [{"alias": "stadiumsarenas", "title": "Stadiums & Arenas"}], "rating": 4.5, "coordinates": {"latitude": 42.34667584098906, "longitude": -71.09721789384841}, "transactions": [], "location": {"address1": "4 Jersey St", "address2": null, "address3": "", "city": "Boston", "zip_code": "02115", "country": "US", "state": "MA", "display_address": ["4 Jersey St", "Boston, MA 02115"]}, "phone": "+18777337699", "display_phone": "(877) 733-7699", "distance": 2138.5619307255924}, {"id": "96RV4GvZdPahV-brg3hnOQ", "alias": "the-north-end-boston", "name": "The North End", "image_url": "https://s3-media3.fl.yelpcdn.com/bphoto/T53Mx5HecLdb55s-G8gB1Q/o.jpg", "is_closed": false, "url": "https://www.yelp.com/biz/the-north-end-boston?adjust_creative=dMFM0G7PB1QaTw51VlEhfg&utm_campaign=yelp_api_v3&utm_medium=api_v3_business_search&utm_source=dMFM0G7PB1QaTw51VlEhfg", "review_count": 112, "categories": [{"alias": "localflavor", "title": "Local Flavor"}], "rating": 4.5, "coordinates": {"latitude": 42.3636176318038, "longitude": -71.0547208786011}, "transactions": [], "location": {"address1": "", "address2": "", "address3": "", "city": "Boston", "zip_code": "02455", "country": "US", "state": "MA", "display_address": ["Boston, MA 02455"]}, "phone": "", "display_phone": "", "distance": 2218.2070353447807}, {"id": "WCtYlaTgPqmOnwtlQIBw1Q", "alias": "newbury-street-boston", "name": "Newbury Street", "image_url": "https://s3-media2.fl.yelpcdn.com/bphoto/4oL9mJXoHPz_ctGPd43ZUA/o.jpg", "is_closed": false, "url": "https://www.yelp.com/biz/newbury-street-boston?adjust_creative=dMFM0G7PB1QaTw51VlEhfg&utm_campaign=yelp_api_v3&utm_medium=api_v3_business_search&utm_source=dMFM0G7PB1QaTw51VlEhfg", "review_count": 101, "categories": [{"alias": "landmarks", "title": "Landmarks & Historical Buildings"}, {"alias": "food_court", "title": "Food Court"}, {"alias": "shoppingcenters", "title": "Shopping Centers"}], "rating": 4.0, "coordinates": {"latitude": 42.3492157403417, "longitude": -71.0841545358009}, "transactions": [], "location": {"address1": "10 Newbury St", "address2": "", "address3": "", "city": "Boston", "zip_code": "02228", "country": "US", "state": "MA", "display_address": ["10 Newbury St", "Boston, MA 02228"]}, "phone": "", "display_phone": "", "distance": 1071.986842677468}, {"id": "mjrQOmemZwqbZ9D2C7FSjg", "alias": "skinny-house-boston", "name": "Skinny House", "image_url": "https://s3-media1.fl.yelpcdn.com/bphoto/RjYAMnlz7Ec6DXIIxFq8cw/o.jpg", "is_closed": false, "url": "https://www.yelp.com/biz/skinny-house-boston?adjust_creative=dMFM0G7PB1QaTw51VlEhfg&utm_campaign=yelp_api_v3&utm_medium=api_v3_business_search&utm_source=dMFM0G7PB1QaTw51VlEhfg", "review_count": 14, "categories": [{"alias": "landmarks", "title": "Landmarks & Historical Buildings"}], "rating": 4.5, "coordinates": {"latitude": 42.3669343979369, "longitude": -71.0562294462728}, "transactions": [], "location": {"address1": "44 Hull St", "address2": "", "address3": "", "city": "Boston", "zip_code": "02113", "country": "US", "state": "MA", "display_address": ["44 Hull St", "Boston, MA 02113"]}, "phone": "", "display_phone": "", "distance": 2455.4193171805537}, {"id": "AIBp7CZNAqzLlLc_Kpc9JA", "alias": "copley-square-boston", "name": "Copley Square", "image_url": "https://s3-media2.fl.yelpcdn.com/bphoto/YbeZFvN65ltV7fMIctb6cA/o.jpg", "is_closed": false, "url": "https://www.yelp.com/biz/copley-square-boston?adjust_creative=dMFM0G7PB1QaTw51VlEhfg&utm_campaign=yelp_api_v3&utm_medium=api_v3_business_search&utm_source=dMFM0G7PB1QaTw51VlEhfg", "review_count": 53, "categories": [{"alias": "parks", "title": "Parks"}], "rating": 4.0, "coordinates": {"latitude": 42.3500639, "longitude": -71.0761142}, "transactions": [], "location": {"address1": "560 Boylston St", "address2": null, "address3": "", "city": "Boston", "zip_code": "02116", "country": "US", "state": "MA", "display_address": ["560 Boylston St", "Boston, MA 02116"]}, "phone": "", "display_phone": "", "distance": 470.4120198396153}, {"id": "cPyQFwnQNW4HLAGt17hxYA", "alias": "isabella-stewart-gardner-museum-boston-2", "name": "Isabella Stewart Gardner Museum", "image_url": "https://s3-media1.fl.yelpcdn.com/bphoto/USYEG6eimwCto9Rz7l2PRw/o.jpg", "is_closed": false, "url": "https://www.yelp.com/biz/isabella-stewart-gardner-museum-boston-2?adjust_creative=dMFM0G7PB1QaTw51VlEhfg&utm_campaign=yelp_api_v3&utm_medium=api_v3_business_search&utm_source=dMFM0G7PB1QaTw51VlEhfg", "review_count": 659, "categories": [{"alias": "artmuseums", "title": "Art Museums"}], "rating": 4.5, "coordinates": {"latitude": 42.3380437101672, "longitude": -71.0989185924732}, "transactions": [], "location": {"address1": "25 Evans Way", "address2": "", "address3": "", "city": "Boston", "zip_code": "02115", "country": "US", "state": "MA", "display_address": ["25 Evans Way", "Boston, MA 02115"]}, "phone": "+16175661401", "display_phone": "(617) 566-1401", "distance": 2522.015008692471}, {"id": "0637qPnv_9upNsjTqA4aYg", "alias": "mit-museum-cambridge", "name": "MIT Museum", "image_url": "https://s3-media2.fl.yelpcdn.com/bphoto/0hTQj31NO8stabj2F16odg/o.jpg", "is_closed": false, "url": "https://www.yelp.com/biz/mit-museum-cambridge?adjust_creative=dMFM0G7PB1QaTw51VlEhfg&utm_campaign=yelp_api_v3&utm_medium=api_v3_business_search&utm_source=dMFM0G7PB1QaTw51VlEhfg", "review_count": 155, "categories": [{"alias": "artmuseums", "title": "Art Museums"}], "rating": 4.0, "coordinates": {"latitude": 42.362095015271926, "longitude": -71.08667072522847}, "transactions": [], "location": {"address1": "314 Main St", "address2": "Building E-28", "address3": "Gambrill Center", "city": "Cambridge", "zip_code": "02142", "country": "US", "state": "MA", "display_address": ["314 Main St", "Building E-28", "Gambrill Center", "Cambridge, MA 02142"]}, "phone": "+16172535927", "display_phone": "(617) 253-5927", "distance": 2029.5166030741682}, {"id": "62crUnXQip4_Cdz2_HOdPA", "alias": "arnold-arboretum-boston", "name": "Arnold Arboretum", "image_url": "https://s3-media2.fl.yelpcdn.com/bphoto/YHpXx--LwkuC2G2G1GNrCA/o.jpg", "is_closed": false, "url": "https://www.yelp.com/biz/arnold-arboretum-boston?adjust_creative=dMFM0G7PB1QaTw51VlEhfg&utm_campaign=yelp_api_v3&utm_medium=api_v3_business_search&utm_source=dMFM0G7PB1QaTw51VlEhfg", "review_count": 386, "categories": [{"alias": "parks", "title": "Parks"}], "rating": 5.0, "coordinates": {"latitude": 42.299889474, "longitude": -71.122416281924}, "transactions": [], "location": {"address1": "125 Arborway", "address2": "", "address3": "", "city": "Boston", "zip_code": "02130", "country": "US", "state": "MA", "display_address": ["125 Arborway", "Boston, MA 02130"]}, "phone": "+16175241718", "display_phone": "(617) 524-1718", "distance": 6791.88787323906}, {"id": "JtdY9HX1_iKFPOLRFV2BmA", "alias": "faneuil-hall-boston", "name": "Faneuil Hall", "image_url": "https://s3-media1.fl.yelpcdn.com/bphoto/yv3J24BOrjvXWr3dbq2f0Q/o.jpg", "is_closed": false, "url": "https://www.yelp.com/biz/faneuil-hall-boston?adjust_creative=dMFM0G7PB1QaTw51VlEhfg&utm_campaign=yelp_api_v3&utm_medium=api_v3_business_search&utm_source=dMFM0G7PB1QaTw51VlEhfg", "review_count": 126, "categories": [{"alias": "landmarks", "title": "Landmarks & Historical Buildings"}], "rating": 4.0, "coordinates": {"latitude": 42.35829655430528, "longitude": -71.05755406979216}, "transactions": [], "location": {"address1": "0 Faneuil Hall Sq", "address2": "", "address3": "", "city": "Boston", "zip_code": "02109", "country": "US", "state": "MA", "display_address": ["0 Faneuil Hall Sq", "Boston, MA 02109"]}, "phone": "+16175231300", "display_phone": "(617) 523-1300", "distance": 1617.669611964576}]