[{"id": "zVeM0xuIk3d4FsARW6Rh-g", "alias": "amazon-spheres-seattle-2", "name": "Amazon Spheres", "image_url": "https://s3-media3.fl.yelpcdn.com/bphoto/xpVgww5PpPDPdhTnSWPoXQ/o.jpg", "is_closed": false, "url": "https://www.yelp.com/biz/amazon-spheres-seattle-2?adjust_creative=dMFM0G7PB1QaTw51VlEhfg&utm_campaign=yelp_api_v3&utm_medium=api_v3_business_search&utm_source=dMFM0G7PB1QaTw51VlEhfg", "review_count": 88, "categories": [{"alias": "localflavor", "title": "Local Flavor"}], "rating": 4.5, "coordinates": {"latitude": 47.615912, "longitude": -122.339382}, "transactions": [], "location": {"address1": "2111 7th Ave", "address2": "", "address3": null, "city": "Seattle", "zip_code": "98101", "country": "US", "state": "WA", "display_address": ["2111 7th Ave", "Seattle, WA 98101"]}, "phone": "", "display_phone": "", "distance": 724.186258330626}, {"id": "qfUyvCfLLq8WGddW-2gFwQ", "alias": "waterfall-garden-seattle", "name": "Waterfall Garden", "image_url": "https://s3-media4.fl.yelpcdn.com/bphoto/C9wNjM2oGvmUsh1-RtUp_w/o.jpg", "is_closed": false, "url": "https://www.yelp.com/biz/waterfall-garden-seattle?adjust_creative=dMFM0G7PB1QaTw51VlEhfg&utm_campaign=yelp_api_v3&utm_medium=api_v3_business_search&utm_source=dMFM0G7PB1QaTw51VlEhfg", "review_count": 202, "categories": [{"alias": "parks", "title": "Parks"}], "rating": 4.5, "coordinates": {"latitude": 47.6002476387003, "longitude": -122.332151074236}, "transactions": [], "location": {"address1": "219 2nd Ave S", "address2": "", "address3": "", "city": "Seattle", "zip_code": "98104", "country": "US", "state": "WA", "display_address": ["219 2nd Ave S", "Seattle, WA 98104"]}, "phone": "+12066246096", "display_phone": "(206) 624-6096", "distance": 1571.95024758949}, {"id": "mMIQ5RG2-m_hc7X8HI4CYA", "alias": "chihuly-garden-and-glass-seattle-2", "name": "Chihuly Garden and Glass", "image_url": "https://s3-media2.fl.yelpcdn.com/bphoto/i3rDZi1hBNXSbjeGjMHs4g/o.jpg", "is_closed": false, "url": "https://www.yelp.com/biz/chihuly-garden-and-glass-seattle-2?adjust_creative=dMFM0G7PB1QaTw51VlEhfg&utm_campaign=yelp_api_v3&utm_medium=api_v3_business_search&utm_source=dMFM0G7PB1QaTw51VlEhfg", "review_count": 2861, "categories": [{"alias": "artmuseums", "title": "Art Museums"}], "rating": 4.5, "coordinates": {"latitude": 47.6205673217773, "longitude": -122.350357055664}, "transactions": [], "location": {"address1": "305 Harrison St", "address2": "", "address3": "", "city": "Seattle", "zip_code": "98109", "country": "US", "state": "WA", "display_address": ["305 Harrison St", "Seattle, WA 98109"]}, "phone": "+12067534940", "display_phone": "(206) 753-4940", "distance": 1675.7744080120597}, {"id": "Ggxh_qmQ0QuDPfP8nal2fQ", "alias": "sky-view-observatory-seattle", "name": "Sky View Observatory", "image_url": "https://s3-media2.fl.yelpcdn.com/bphoto/31E9qoTwPc1d-ofM5JrQdA/o.jpg", "is_closed": false, "url": "https://www.yelp.com/biz/sky-view-observatory-seattle?adjust_creative=dMFM0G7PB1QaTw51VlEhfg&utm_campaign=yelp_api_v3&utm_medium=api_v3_business_search&utm_source=dMFM0G7PB1QaTw51VlEhfg", "review_count": 491, "categories": [{"alias": "observatories", "title": "Observatories"}], "rating": 4.5, "coordinates": {"latitude": 47.6041956539583, "longitude": -122.330875246696}, "transactions": [], "location": {"address1": "700 4th Ave", "address2": "Fl 73", "address3": "Columbia Center", "city": "Seattle", "zip_code": "98104", "country": "US", "state": "WA", "display_address": ["700 4th Ave", "Fl 73", "Columbia Center", "Seattle, WA 98104"]}, "phone": "+12063865564", "display_phone": "(206) 386-5564", "distance": 1126.6276402391202}, {"id": "eIC_qDsq_YVFjZUyNibNag", "alias": "fremont-troll-seattle", "name": "Fremont Troll", "image_url": "https://s3-media2.fl.yelpcdn.com/bphoto/3oC1y0Bs89YNRwI_jyr5AQ/o.jpg", "is_closed": false, "url": "https://www.yelp.com/biz/fremont-troll-seattle?adjust_creative=dMFM0G7PB1QaTw51VlEhfg&utm_campaign=yelp_api_v3&utm_medium=api_v3_business_search&utm_source=dMFM0G7PB1QaTw51VlEhfg", "review_count": 789, "categories": [{"alias": "publicart", "title": "Public Art"}], "rating": 4.5, "coordinates": {"latitude": 47.650991142835544, "longitude": -122.34749709047942}, "transactions": [], "location": {"address1": "880 N 36th St", "address2": null, "address3": null, "city": "Seattle", "zip_code": "98103", "country": "US", "state": "WA", "display_address": ["880 N 36th St", "Seattle, WA 98103"]}, "phone": "", "display_phone": "", "distance": 4283.7832826775975}, {"id": "QeL4IK5hko3L8UyLpFEucw", "alias": "bill-speidels-underground-tour-seattle-2", "name": "Bill Speidel's Underground Tour", "image_url": "https://s3-media3.fl.yelpcdn.com/bphoto/sgVy7lin3-7VjzivYbWf7w/o.jpg", "is_closed": false, "url": "https://www.yelp.com/biz/bill-speidels-underground-tour-seattle-2?adjust_creative=dMFM0G7PB1QaTw51VlEhfg&utm_campaign=yelp_api_v3&utm_medium=api_v3_business_search&utm_source=dMFM0G7PB1QaTw51VlEhfg", "review_count": 2159, "categories": [{"alias": "historicaltours", "title": "Historical Tours"}, {"alias": "walkingtours", "title": "Walking Tours"}], "rating": 4.0, "coordinates": {"latitude": 47.602375, "longitude": -122.333654}, "transactions": [], "location": {"address1": "614 1st Ave", "address2": "", "address3": "", "city": "Seattle", "zip_code": "98104", "country": "US", "state": "WA", "display_address": ["614 1st Ave", "Seattle, WA 98104"]}, "phone": "+12066824646", "display_phone": "(206) 682-4646", "distance": 1354.9517120414864}, {"id": "pw-5i-DaYAqer_HIQd7K8A", "alias": "china-spree-bellevue", "name": "China Spree", "image_url": "https://s3-media1.fl.yelpcdn.com/bphoto/uD3OYbXWDvIxSWgSBazZsw/o.jpg", "is_closed": false, "url": "https://www.yelp.com/biz/china-spree-bellevue?adjust_creative=dMFM0G7PB1QaTw51VlEhfg&utm_campaign=yelp_api_v3&utm_medium=api_v3_business_search&utm_source=dMFM0G7PB1QaTw51VlEhfg", "review_count": 33, "categories": [{"alias": "tours", "title": "Tours"}, {"alias": "travelservices", "title": "Travel Services"}], "rating": 5.0, "coordinates": {"latitude": 47.6308241, "longitude": -122.1650614}, "transactions": [], "location": {"address1": "2320 130th Ave NE", "address2": "Ste 200", "address3": "", "city": "Bellevue", "zip_code": "98005", "country": "US", "state": "WA", "display_address": ["2320 130th Ave NE", "Ste 200", "Bellevue, WA 98005"]}, "phone": "+18666525656", "display_phone": "(866) 652-5656", "distance": 12498.472011255322}, {"id": "f8Kazc9dzSiJamYoMuYj5w", "alias": "the-laser-dome-seattle", "name": "The Laser Dome", "image_url": "https://s3-media1.fl.yelpcdn.com/bphoto/0TlFuDGNTsc8XD8vsYOPFg/o.jpg", "is_closed": false, "url": "https://www.yelp.com/biz/the-laser-dome-seattle?adjust_creative=dMFM0G7PB1QaTw51VlEhfg&utm_campaign=yelp_api_v3&utm_medium=api_v3_business_search&utm_source=dMFM0G7PB1QaTw51VlEhfg", "review_count": 84, "categories": [{"alias": "museums", "title": "Museums"}, {"alias": "venues", "title": "Venues & Event Spaces"}, {"alias": "culturalcenter", "title": "Cultural Center"}], "rating": 4.5, "coordinates": {"latitude": 47.61943, "longitude": -122.35137}, "transactions": [], "location": {"address1": "200 2nd Ave N", "address2": "", "address3": "", "city": "Seattle", "zip_code": "98109", "country": "US", "state": "WA", "display_address": ["200 2nd Ave N", "Seattle, WA 98109"]}, "phone": "+12064432001", "display_phone": "(206) 443-2001", "distance": 1696.9783862398167}, {"id": "5pU9Ahv7ow4XRyhjeE754A", "alias": "pike-place-market-seattle", "name": "Pike Place Market", "image_url": "https://s3-media4.fl.yelpcdn.com/bphoto/HuZGVQNJOT9L_4WFET-ZJQ/o.jpg", "is_closed": false, "url": "https://www.yelp.com/biz/pike-place-market-seattle?adjust_creative=dMFM0G7PB1QaTw51VlEhfg&utm_campaign=yelp_api_v3&utm_medium=api_v3_business_search&utm_source=dMFM0G7PB1QaTw51VlEhfg", "review_count": 4349, "categories": [{"alias": "publicmarkets", "title": "Public Markets"}], "rating": 4.5, "coordinates": {"latitude": 47.60844, "longitude": -122.340532}, "transactions": [], "price": "$$", "location": {"address1": "85 Pike St", "address2": "", "address3": "", "city": "Seattle", "zip_code": "98101", "country": "US", "state": "WA", "display_address": ["85 Pike St", "Seattle, WA 98101"]}, "phone": "+12066827453", "display_phone": "(206) 682-7453", "distance": 1023.4741011704572}, {"id": "Ej82KYoyAX2k_-yMCigMgA", "alias": "seattle-japanese-garden-seattle", "name": "Seattle Japanese Garden", "image_url": "https://s3-media2.fl.yelpcdn.com/bphoto/j5IKQWLb9c9vPHeMaucA3g/o.jpg", "is_closed": false, "url": "https://www.yelp.com/biz/seattle-japanese-garden-seattle?adjust_creative=dMFM0G7PB1QaTw51VlEhfg&utm_campaign=yelp_api_v3&utm_medium=api_v3_business_search&utm_source=dMFM0G7PB1QaTw51VlEhfg", "review_count": 205, "categories": [{"alias": "gardens", "title": "Botanical Gardens"}], "rating": 4.0, "coordinates": {"latitude": 47.6288166209884, "longitude": -122.295918462418}, "transactions": [], "location": {"address1": "1075 Lake Washington Blvd E", "address2": "", "address3": "", "city": "Seattle", "zip_code": "98112", "country": "US", "state": "WA", "display_address": ["1075 Lake Washington Blvd E", "Seattle, WA 98112"]}, "phone": "+12066844725", "display_phone": "(206) 684-4725", "distance": 3022.0476844067753}, {"id": "MUo0UetYF961VH6cv8j56A", "alias": "museum-of-pop-culture-seattle-3", "name": "Museum of Pop Culture", "image_url": "https://s3-media4.fl.yelpcdn.com/bphoto/mj1rHLJJGcMEPlsR1ASPXA/o.jpg", "is_closed": false, "url": "https://www.yelp.com/biz/museum-of-pop-culture-seattle-3?adjust_creative=dMFM0G7PB1QaTw51VlEhfg&utm_campaign=yelp_api_v3&utm_medium=api_v3_business_search&utm_source=dMFM0G7PB1QaTw51VlEhfg", "review_count": 1765, "categories": [{"alias": "museums", "title": "Museums"}], "rating": 4.0, "coordinates": {"latitude": 47.621486, "longitude": -122.348124}, "transactions": [], "location": {"address1": "325 5th Ave N", "address2": "", "address3": "", "city": "Seattle", "zip_code": "98109", "country": "US", "state": "WA", "display_address": ["325 5th Ave N", "Seattle, WA 98109"]}, "phone": "+12067702700", "display_phone": "(206) 770-2700", "distance": 1574.2974206027702}, {"id": "5E7kXBcL132vZX1z1hWwvQ", "alias": "neko-a-cat-cafe-seattle-4", "name": "NEKO: A Cat Cafe", "image_url": "https://s3-media1.fl.yelpcdn.com/bphoto/GFpRuwxEI4qqKif0u48CVg/o.jpg", "is_closed": false, "url": "https://www.yelp.com/biz/neko-a-cat-cafe-seattle-4?adjust_creative=dMFM0G7PB1QaTw51VlEhfg&utm_campaign=yelp_api_v3&utm_medium=api_v3_business_search&utm_source=dMFM0G7PB1QaTw51VlEhfg", "review_count": 279, "categories": [{"alias": "themedcafes", "title": "Themed Cafes"}], "rating": 4.5, "coordinates": {"latitude": 47.6151, "longitude": -122.32483}, "transactions": [], "price": "$$", "location": {"address1": "519 E Pine St", "address2": "", "address3": null, "city": "Seattle", "zip_code": "98122", "country": "US", "state": "WA", "display_address": ["519 E Pine St", "Seattle, WA 98122"]}, "phone": "+12067087287", "display_phone": "(206) 708-7287", "distance": 400.92177414987776}, {"id": "NXxA6Q0FP-G9kZQx4gngEg", "alias": "kerry-park-seattle", "name": "Kerry Park", "image_url": "https://s3-media3.fl.yelpcdn.com/bphoto/fdeuZczxbloSEUESbmJ3Hw/o.jpg", "is_closed": false, "url": "https://www.yelp.com/biz/kerry-park-seattle?adjust_creative=dMFM0G7PB1QaTw51VlEhfg&utm_campaign=yelp_api_v3&utm_medium=api_v3_business_search&utm_source=dMFM0G7PB1QaTw51VlEhfg", "review_count": 1009, "categories": [{"alias": "parks", "title": "Parks"}, {"alias": "playgrounds", "title": "Playgrounds"}], "rating": 4.5, "coordinates": {"latitude": 47.62947371900122, "longitude": -122.35992508220973}, "transactions": [], "location": {"address1": "211 W Highland Dr", "address2": "", "address3": "", "city": "Seattle", "zip_code": "98119", "country": "US", "state": "WA", "display_address": ["211 W Highland Dr", "Seattle, WA 98119"]}, "phone": "+12066844075", "display_phone": "(206) 684-4075", "distance": 2804.8270840389946}, {"id": "8iT4nTUdFjqxJnP0g3hm_Q", "alias": "post-alley-gum-wall-seattle-2", "name": "Post Alley Gum Wall", "image_url": "https://s3-media2.fl.yelpcdn.com/bphoto/VejSi-AXR5Koq8e_yXeMSQ/o.jpg", "is_closed": false, "url": "https://www.yelp.com/biz/post-alley-gum-wall-seattle-2?adjust_creative=dMFM0G7PB1QaTw51VlEhfg&utm_campaign=yelp_api_v3&utm_medium=api_v3_business_search&utm_source=dMFM0G7PB1QaTw51VlEhfg", "review_count": 1112, "categories": [{"alias": "localflavor", "title": "Local Flavor"}], "rating": 4.0, "coordinates": {"latitude": 47.6083715141448, "longitude": -122.340291962028}, "transactions": [], "location": {"address1": "1428 Post Aly", "address2": null, "address3": null, "city": "Seattle", "zip_code": "98101", "country": "US", "state": "WA", "display_address": ["1428 Post Aly", "Seattle, WA 98101"]}, "phone": "+12065872414", "display_phone": "(206) 587-2414", "distance": 1014.6223161377383}, {"id": "5Zvm5Z8zaoQcLPvlUwuEWA", "alias": "original-selfie-museum-seattle", "name": "Original Selfie Museum", "image_url": "https://s3-media3.fl.yelpcdn.com/bphoto/D80uBzRE7cDl9mKIvE7m0Q/o.jpg", "is_closed": false, "url": "https://www.yelp.com/biz/original-selfie-museum-seattle?adjust_creative=dMFM0G7PB1QaTw51VlEhfg&utm_campaign=yelp_api_v3&utm_medium=api_v3_business_search&utm_source=dMFM0G7PB1QaTw51VlEhfg", "review_count": 96, "categories": [{"alias": "artmuseums", "title": "Art Museums"}, {"alias": "venues", "title": "Venues & Event Spaces"}], "rating": 4.5, "coordinates": {"latitude": 47.60775, "longitude": -122.33968}, "transactions": [], "location": {"address1": "92 Union St", "address2": "Post Alley", "address3": null, "city": "Seattle", "zip_code": "98101", "country": "US", "state": "WA", "display_address": ["92 Union St", "Post Alley", "Seattle, WA 98101"]}, "phone": "+12064874500", "display_phone": "(206) 487-4500", "distance": 1028.79654908124}, {"id": "rnY5QAh9WHItlA92lJ2daw", "alias": "kubota-garden-seattle", "name": "Kubota Garden", "image_url": "https://s3-media1.fl.yelpcdn.com/bphoto/dqfxMYJqovX00RQD75n8ew/o.jpg", "is_closed": false, "url": "https://www.yelp.com/biz/kubota-garden-seattle?adjust_creative=dMFM0G7PB1QaTw51VlEhfg&utm_campaign=yelp_api_v3&utm_medium=api_v3_business_search&utm_source=dMFM0G7PB1QaTw51VlEhfg", "review_count": 325, "categories": [{"alias": "gardens", "title": "Botanical Gardens"}], "rating": 4.5, "coordinates": {"latitude": 47.512563, "longitude": -122.2649097}, "transactions": [], "location": {"address1": "9817 55th Ave S", "address2": null, "address3": "", "city": "Seattle", "zip_code": "98178", "country": "US", "state": "WA", "display_address": ["9817 55th Ave S", "Seattle, WA 98178"]}, "phone": "+12067255060", "display_phone": "(206) 725-5060", "distance": 12292.552645885024}, {"id": "DtiSFz1gp1tcI2RtIeUVbg", "alias": "seattle-public-library-central-library-seattle-2", "name": "Seattle Public Library - Central Library", "image_url": "https://s3-media1.fl.yelpcdn.com/bphoto/Pg-LeppEZh4QsrtTzya-zg/o.jpg", "is_closed": false, "url": "https://www.yelp.com/biz/seattle-public-library-central-library-seattle-2?adjust_creative=dMFM0G7PB1QaTw51VlEhfg&utm_campaign=yelp_api_v3&utm_medium=api_v3_business_search&utm_source=dMFM0G7PB1QaTw51VlEhfg", "review_count": 576, "categories": [{"alias": "libraries", "title": "Libraries"}], "rating": 4.5, "coordinates": {"latitude": 47.6066296107625, "longitude": -122.332693934441}, "transactions": [], "location": {"address1": "1000 Fourth Ave", "address2": null, "address3": "", "city": "Seattle", "zip_code": "98104", "country": "US", "state": "WA", "display_address": ["1000 Fourth Ave", "Seattle, WA 98104"]}, "phone": "+12063864636", "display_phone": "(206) 386-4636", "distance": 877.401061811838}, {"id": "2baNAu-fPc9j51RrgKNkfg", "alias": "hiram-m-chittenden-locks-seattle", "name": "Hiram M Chittenden Locks", "image_url": "https://s3-media4.fl.yelpcdn.com/bphoto/_5MHBEj8dFpv1zv-PAJ64Q/o.jpg", "is_closed": false, "url": "https://www.yelp.com/biz/hiram-m-chittenden-locks-seattle?adjust_creative=dMFM0G7PB1QaTw51VlEhfg&utm_campaign=yelp_api_v3&utm_medium=api_v3_business_search&utm_source=dMFM0G7PB1QaTw51VlEhfg", "review_count": 445, "categories": [{"alias": "landmarks", "title": "Landmarks & Historical Buildings"}], "rating": 4.5, "coordinates": {"latitude": 47.66551014983961, "longitude": -122.3971838018895}, "transactions": [], "location": {"address1": "3015 NW 54th St", "address2": "", "address3": "", "city": "Seattle", "zip_code": "98107", "country": "US", "state": "WA", "display_address": ["3015 NW 54th St", "Seattle, WA 98107"]}, "phone": "+12067802500", "display_phone": "(206) 780-2500", "distance": 7598.319126935144}, {"id": "tMrR1aCr4lI3ZyTpp-rcdg", "alias": "melrose-market-seattle-5", "name": "Melrose Market", "image_url": "https://s3-media2.fl.yelpcdn.com/bphoto/p1GMgesk6MYKCKCrh5OyUA/o.jpg", "is_closed": false, "url": "https://www.yelp.com/biz/melrose-market-seattle-5?adjust_creative=dMFM0G7PB1QaTw51VlEhfg&utm_campaign=yelp_api_v3&utm_medium=api_v3_business_search&utm_source=dMFM0G7PB1QaTw51VlEhfg", "review_count": 84, "categories": [{"alias": "shoppingcenters", "title": "Shopping Centers"}], "rating": 4.5, "coordinates": {"latitude": 47.61479, "longitude": -122.32811}, "transactions": [], "price": "$$", "location": {"address1": "1527 Melrose Ave", "address2": "", "address3": "", "city": "Seattle", "zip_code": "98122", "country": "US", "state": "WA", "display_address": ["1527 Melrose Ave", "Seattle, WA 98122"]}, "phone": "+15036034700", "display_phone": "(503) 603-4700", "distance": 145.85708467545965}, {"id": "bF9Jr3VFHl6fNsmjrp1oZQ", "alias": "the-spheres-discovery-at-the-understory-seattle", "name": "The Spheres Discovery At The Understory", "image_url": "https://s3-media1.fl.yelpcdn.com/bphoto/vxYYsp_lULkw8WY2Z6ndHw/o.jpg", "is_closed": false, "url": "https://www.yelp.com/biz/the-spheres-discovery-at-the-understory-seattle?adjust_creative=dMFM0G7PB1QaTw51VlEhfg&utm_campaign=yelp_api_v3&utm_medium=api_v3_business_search&utm_source=dMFM0G7PB1QaTw51VlEhfg", "review_count": 76, "categories": [{"alias": "gardens", "title": "Botanical Gardens"}, {"alias": "visitorcenters", "title": "Visitor Centers"}], "rating": 4.0, "coordinates": {"latitude": 47.6154707369309, "longitude": -122.339553077112}, "transactions": [], "location": {"address1": "2101 7th Ave", "address2": "", "address3": null, "city": "Seattle", "zip_code": "98121", "country": "US", "state": "WA", "display_address": ["2101 7th Ave", "Seattle, WA 98121"]}, "phone": "", "display_phone": "", "distance": 726.3312148936334}]