{"businesses": [{"id": "YmQ1FAFNuOtoNeHmq0qaIQ", "alias": "gatorland-orlando", "name": "Gatorland", "image_url": "https://s3-media2.fl.yelpcdn.com/bphoto/Lm10ogXH3vKJHTOh--yilQ/o.jpg", "is_closed": false, "url": "https://www.yelp.com/biz/gatorland-orlando?adjust_creative=dMFM0G7PB1QaTw51VlEhfg&utm_campaign=yelp_api_v3&utm_medium=api_v3_business_search&utm_source=dMFM0G7PB1QaTw51VlEhfg", "review_count": 950, "categories": [{"alias": "zoos", "title": "Zoos"}, {"alias": "tours", "title": "Tours"}, {"alias": "zipline", "title": "Ziplining"}], "rating": 4.5, "coordinates": {"latitude": 28.35597070519463, "longitude": -81.40402604347578}, "transactions": [], "location": {"address1": "14501 S Orange Blossom Trl", "address2": "", "address3": "", "city": "Orlando", "zip_code": "32837", "country": "US", "state": "FL", "display_address": ["14501 S Orange Blossom Trl", "Orlando, FL 32837"]}, "phone": "+14078555496", "display_phone": "(407) 855-5496", "distance": 15098.154209029408}, {"id": "KUkjA6EhQgg2lP8q2r6y3g", "alias": "kelly-park-apopka", "name": "Kelly Park", "image_url": "https://s3-media4.fl.yelpcdn.com/bphoto/a2JW2IWy6-ilanFHcV0ZdA/o.jpg", "is_closed": false, "url": "https://www.yelp.com/biz/kelly-park-apopka?adjust_creative=dMFM0G7PB1QaTw51VlEhfg&utm_campaign=yelp_api_v3&utm_medium=api_v3_business_search&utm_source=dMFM0G7PB1QaTw51VlEhfg", "review_count": 201, "categories": [{"alias": "hiking", "title": "Hiking"}, {"alias": "parks", "title": "Parks"}], "rating": 4.5, "coordinates": {"latitude": 28.75723, "longitude": -81.50332}, "transactions": [], "location": {"address1": "400 E Kelly Park Rd", "address2": "", "address3": "", "city": "Apopka", "zip_code": "32712", "country": "US", "state": "FL", "display_address": ["400 E Kelly Park Rd", "Apopka, FL 32712"]}, "phone": "+14072541902", "display_phone": "(407) 254-1902", "distance": 34528.51397168011}, {"id": "_u0Nko6Jl86amuffDY4Mcw", "alias": "museum-of-illusions-orlando", "name": "Museum of Illusions", "image_url": "https://s3-media2.fl.yelpcdn.com/bphoto/k_i0ac6R7RE_7o6_DkJCJA/o.jpg", "is_closed": false, "url": "https://www.yelp.com/biz/museum-of-illusions-orlando?adjust_creative=dMFM0G7PB1QaTw51VlEhfg&utm_campaign=yelp_api_v3&utm_medium=api_v3_business_search&utm_source=dMFM0G7PB1QaTw51VlEhfg", "review_count": 67, "categories": [{"alias": "artmuseums", "title": "Art Museums"}, {"alias": "souvenirs", "title": "Souvenir Shops"}, {"alias": "education", "title": "Education"}], "rating": 4.0, "coordinates": {"latitude": 28.442592, "longitude": -81.469109}, "transactions": [], "price": "$$$", "location": {"address1": "8441 International Dr", "address2": null, "address3": "", "city": "Orlando", "zip_code": "32819", "country": "US", "state": "FL", "display_address": ["8441 International Dr", "Orlando, FL 32819"]}, "phone": "+13862561001", "display_phone": "(386) 256-1001", "distance": 13057.65098058573}, {"id": "Hf32W0LKC5lJZ1U0ADIC-w", "alias": "chocolate-museum-and-cafe-orlando-2", "name": "Chocolate Museum & Cafe", "image_url": "https://s3-media4.fl.yelpcdn.com/bphoto/NGDAH-qOsfr8Uo5auRzSDw/o.jpg", "is_closed": false, "url": "https://www.yelp.com/biz/chocolate-museum-and-cafe-orlando-2?adjust_creative=dMFM0G7PB1QaTw51VlEhfg&utm_campaign=yelp_api_v3&utm_medium=api_v3_business_search&utm_source=dMFM0G7PB1QaTw51VlEhfg", "review_count": 600, "categories": [{"alias": "museums", "title": "Museums"}, {"alias": "tours", "title": "Tours"}, {"alias": "cafes", "title": "Cafes"}], "rating": 4.5, "coordinates": {"latitude": 28.39444, "longitude": -81.46385}, "transactions": ["pickup", "delivery"], "price": "$$", "location": {"address1": "11701 International Dr", "address2": "Ste 400", "address3": "", "city": "Orlando", "zip_code": "32821", "country": "US", "state": "FL", "display_address": ["11701 International Dr", "Ste 400", "Orlando, FL 32821"]}, "phone": "+14077784871", "display_phone": "(407) 778-4871", "distance": 15351.434235347757}, {"id": "zdik_Yi7c5MvSfv4d2Ue4w", "alias": "crayola-experience-orlando", "name": "Crayola Experience", "image_url": "https://s3-media3.fl.yelpcdn.com/bphoto/elCkFCwHe7xSrnErQ3zcvw/o.jpg", "is_closed": false, "url": "https://www.yelp.com/biz/crayola-experience-orlando?adjust_creative=dMFM0G7PB1QaTw51VlEhfg&utm_campaign=yelp_api_v3&utm_medium=api_v3_business_search&utm_source=dMFM0G7PB1QaTw51VlEhfg", "review_count": 309, "categories": [{"alias": "amusementparks", "title": "Amusement Parks"}], "rating": 3.5, "coordinates": {"latitude": 28.44487695356292, "longitude": -81.39173865513266}, "transactions": [], "location": {"address1": "8001 S Orange Blossom Trl", "address2": "", "address3": "", "city": "Orlando", "zip_code": "32809", "country": "US", "state": "FL", "display_address": ["8001 S Orange Blossom Trl", "Orlando, FL 32809"]}, "phone": "+14077571700", "display_phone": "(407) 757-1700", "distance": 6220.651108359486}, {"id": "80Butl5pvzQC9CXoC_vW-w", "alias": "discovery-cove-orlando", "name": "Discovery Cove", "image_url": "https://s3-media4.fl.yelpcdn.com/bphoto/xkbdF3VApq0En77-7DYbvQ/o.jpg", "is_closed": false, "url": "https://www.yelp.com/biz/discovery-cove-orlando?adjust_creative=dMFM0G7PB1QaTw51VlEhfg&utm_campaign=yelp_api_v3&utm_medium=api_v3_business_search&utm_source=dMFM0G7PB1QaTw51VlEhfg", "review_count": 524, "categories": [{"alias": "amusementparks", "title": "Amusement Parks"}, {"alias": "resorts", "title": "Resorts"}, {"alias": "waterparks", "title": "Water Parks"}], "rating": 4.5, "coordinates": {"latitude": 28.405087089822427, "longitude": -81.46245342944499}, "transactions": [], "location": {"address1": "6000 Discovery Cove Way", "address2": "", "address3": "", "city": "Orlando", "zip_code": "32821", "country": "US", "state": "FL", "display_address": ["6000 Discovery Cove Way", "Orlando, FL 32821"]}, "phone": "+14075134600", "display_phone": "(407) 513-4600", "distance": 14402.837799722596}, {"id": "K6NyOVTUnS0ZlCyEsXBU4g", "alias": "wonderworks-orlando", "name": "WonderWorks", "image_url": "https://s3-media3.fl.yelpcdn.com/bphoto/UGz31yfU9vYwPAay7sUGpw/o.jpg", "is_closed": false, "url": "https://www.yelp.com/biz/wonderworks-orlando?adjust_creative=dMFM0G7PB1QaTw51VlEhfg&utm_campaign=yelp_api_v3&utm_medium=api_v3_business_search&utm_source=dMFM0G7PB1QaTw51VlEhfg", "review_count": 415, "categories": [{"alias": "amusementparks", "title": "Amusement Parks"}, {"alias": "challengecourses", "title": "Challenge Courses"}, {"alias": "lasertag", "title": "Laser Tag"}], "rating": 3.5, "coordinates": {"latitude": 28.4336683023023, "longitude": -81.4716338840614}, "transactions": [], "location": {"address1": "9067 International Dr", "address2": "", "address3": "", "city": "Orlando", "zip_code": "32819", "country": "US", "state": "FL", "display_address": ["9067 International Dr", "Orlando, FL 32819"]}, "phone": "+14073518800", "display_phone": "(407) 351-8800", "distance": 13635.808080404877}, {"id": "YqpHUZ07EjtolwFENay8vg", "alias": "sci-fi-dine-in-theater-restaurant-orlando-2", "name": "Sci-Fi Dine-In Theater Restaurant", "image_url": "https://s3-media1.fl.yelpcdn.com/bphoto/NprHufJI7Baft9cUB3r_nw/o.jpg", "is_closed": false, "url": "https://www.yelp.com/biz/sci-fi-dine-in-theater-restaurant-orlando-2?adjust_creative=dMFM0G7PB1QaTw51VlEhfg&utm_campaign=yelp_api_v3&utm_medium=api_v3_business_search&utm_source=dMFM0G7PB1QaTw51VlEhfg", "review_count": 897, "categories": [{"alias": "dinnertheater", "title": "Dinner Theater"}, {"alias": "tradamerican", "title": "American (Traditional)"}], "rating": 4.0, "coordinates": {"latitude": 28.3558040453907, "longitude": -81.5597251865082}, "transactions": [], "price": "$$", "location": {"address1": "351 S Studio Dr", "address2": null, "address3": null, "city": "Orlando", "zip_code": "32830", "country": "US", "state": "FL", "display_address": ["351 S Studio Dr", "Orlando, FL 32830"]}, "phone": "+14079395277", "display_phone": "(407) 939-5277", "distance": 25352.365470277713}, {"id": "CFPq1Plq3OU6uNL5k3Ue0g", "alias": "icon-park-orlando-2", "name": "ICON Park", "image_url": "https://s3-media1.fl.yelpcdn.com/bphoto/VYT_CPXc_JrP_SVDnkrPaQ/o.jpg", "is_closed": false, "url": "https://www.yelp.com/biz/icon-park-orlando-2?adjust_creative=dMFM0G7PB1QaTw51VlEhfg&utm_campaign=yelp_api_v3&utm_medium=api_v3_business_search&utm_source=dMFM0G7PB1QaTw51VlEhfg", "review_count": 478, "categories": [{"alias": "amusementparks", "title": "Amusement Parks"}], "rating": 3.5, "coordinates": {"latitude": 28.44324396819714, "longitude": -81.4692866792365}, "transactions": [], "location": {"address1": "8375 International Dr", "address2": "", "address3": "", "city": "Orlando", "zip_code": "32819", "country": "US", "state": "FL", "display_address": ["8375 International Dr", "Orlando, FL 32819"]}, "phone": "+14076017907", "display_phone": "(407) 601-7907", "distance": 13046.519785381253}, {"id": "gmlQygznxxDYiQWJEnnYfw", "alias": "cypress-cove-nudist-resort-kissimmee-2", "name": "Cypress Cove Nudist Resort", "image_url": "https://s3-media4.fl.yelpcdn.com/bphoto/1VXeNDhKczJe3H_hUsCtnQ/o.jpg", "is_closed": false, "url": "https://www.yelp.com/biz/cypress-cove-nudist-resort-kissimmee-2?adjust_creative=dMFM0G7PB1QaTw51VlEhfg&utm_campaign=yelp_api_v3&utm_medium=api_v3_business_search&utm_source=dMFM0G7PB1QaTw51VlEhfg", "review_count": 36, "categories": [{"alias": "resorts", "title": "Resorts"}, {"alias": "campgrounds", "title": "Campgrounds"}], "rating": 4.5, "coordinates": {"latitude": 28.158329825836788, "longitude": -81.43945497982008}, "transactions": [], "location": {"address1": "4425 Pleasant Hill Rd", "address2": "", "address3": "", "city": "Kissimmee", "zip_code": "34746", "country": "US", "state": "FL", "display_address": ["4425 Pleasant Hill Rd", "Kissimmee, FL 34746"]}, "phone": "+14079335870", "display_phone": "(407) 933-5870", "distance": 37064.207759087556}, {"id": "smPOuy1Cuiy3QCFLhu173A", "alias": "fun-spot-america-orlando-8", "name": "Fun Spot America", "image_url": "https://s3-media2.fl.yelpcdn.com/bphoto/U88WchHdmItIwe0SAY9Ptw/o.jpg", "is_closed": false, "url": "https://www.yelp.com/biz/fun-spot-america-orlando-8?adjust_creative=dMFM0G7PB1QaTw51VlEhfg&utm_campaign=yelp_api_v3&utm_medium=api_v3_business_search&utm_source=dMFM0G7PB1QaTw51VlEhfg", "review_count": 331, "categories": [{"alias": "arcades", "title": "Arcades"}, {"alias": "amusementparks", "title": "Amusement Parks"}, {"alias": "gokarts", "title": "Go Karts"}], "rating": 4.0, "coordinates": {"latitude": 28.46543, "longitude": -81.45541}, "transactions": [], "location": {"address1": "5700 Fun Spot Way", "address2": "", "address3": "", "city": "Orlando", "zip_code": "32819", "country": "US", "state": "FL", "display_address": ["5700 Fun Spot Way", "Orlando, FL 32819"]}, "phone": "+14073633867", "display_phone": "(407) 363-3867", "distance": 11174.712705776332}, {"id": "x21CuTNK9xBh59-2D-c9Lw", "alias": "universal-citywalk-orlando", "name": "Universal CityWalk", "image_url": "https://s3-media1.fl.yelpcdn.com/bphoto/dXJYFXw45Z-YVQY8KrJTDg/o.jpg", "is_closed": false, "url": "https://www.yelp.com/biz/universal-citywalk-orlando?adjust_creative=dMFM0G7PB1QaTw51VlEhfg&utm_campaign=yelp_api_v3&utm_medium=api_v3_business_search&utm_source=dMFM0G7PB1QaTw51VlEhfg", "review_count": 626, "categories": [{"alias": "restaurants", "title": "Restaurants"}, {"alias": "shoppingcenters", "title": "Shopping Centers"}], "rating": 4.0, "coordinates": {"latitude": 28.472432259547, "longitude": -81.4665143249303}, "transactions": [], "price": "$$", "location": {"address1": "6000 Universal Studios Plz", "address2": "", "address3": "Universal CityWalk - Orlando", "city": "Orlando", "zip_code": "32819", "country": "US", "state": "FL", "display_address": ["6000 Universal Studios Plz", "Universal CityWalk - Orlando", "Orlando, FL 32819"]}, "phone": "+14073638000", "display_phone": "(407) 363-8000", "distance": 12128.751396512154}, {"id": "jrbuGdU61OjL7ZkDP3mi1Q", "alias": "sea-life-orlando-2", "name": "Sea Life", "image_url": "https://s3-media3.fl.yelpcdn.com/bphoto/iwXDG3W-p6CVeP4p0oKhFw/o.jpg", "is_closed": false, "url": "https://www.yelp.com/biz/sea-life-orlando-2?adjust_creative=dMFM0G7PB1QaTw51VlEhfg&utm_campaign=yelp_api_v3&utm_medium=api_v3_business_search&utm_source=dMFM0G7PB1QaTw51VlEhfg", "review_count": 311, "categories": [{"alias": "aquariums", "title": "Aquariums"}], "rating": 4.0, "coordinates": {"latitude": 28.4427718961813, "longitude": -81.4685091764648}, "transactions": [], "location": {"address1": "8449 International Dr", "address2": "", "address3": "", "city": "Orlando", "zip_code": "32819", "country": "US", "state": "FL", "display_address": ["8449 International Dr", "Orlando, FL 32819"]}, "phone": "", "display_phone": "", "distance": 12991.424245882392}, {"id": "F19yNEV19mVEPlYrCg0v0A", "alias": "7d-dark-ride-adventure-orlando", "name": "7D Dark Ride Adventure", "image_url": "https://s3-media1.fl.yelpcdn.com/bphoto/WisksKFmLGT3Jj-zdKvI5g/o.jpg", "is_closed": false, "url": "https://www.yelp.com/biz/7d-dark-ride-adventure-orlando?adjust_creative=dMFM0G7PB1QaTw51VlEhfg&utm_campaign=yelp_api_v3&utm_medium=api_v3_business_search&utm_source=dMFM0G7PB1QaTw51VlEhfg", "review_count": 24, "categories": [{"alias": "amusementparks", "title": "Amusement Parks"}], "rating": 4.0, "coordinates": {"latitude": 28.4431709, "longitude": -81.4688564521843}, "transactions": [], "location": {"address1": "8401 International Dr", "address2": "", "address3": null, "city": "Orlando", "zip_code": "32819", "country": "US", "state": "FL", "display_address": ["8401 International Dr", "Orlando, FL 32819"]}, "phone": "+14076753166", "display_phone": "(407) 675-3166", "distance": 13009.260846816234}, {"id": "E8jQoqcgh6WYcSz0GmFSqQ", "alias": "exotic-animal-experience-orlando", "name": "Exotic Animal Experience", "image_url": "https://s3-media1.fl.yelpcdn.com/bphoto/7hA6FkdWnfZlXt95hj1QGw/o.jpg", "is_closed": false, "url": "https://www.yelp.com/biz/exotic-animal-experience-orlando?adjust_creative=dMFM0G7PB1QaTw51VlEhfg&utm_campaign=yelp_api_v3&utm_medium=api_v3_business_search&utm_source=dMFM0G7PB1QaTw51VlEhfg", "review_count": 29, "categories": [{"alias": "zoos", "title": "Zoos"}], "rating": 5.0, "coordinates": {"latitude": 28.5113945007324, "longitude": -81.0758361816406}, "transactions": [], "location": {"address1": "", "address2": "", "address3": "", "city": "Orlando", "zip_code": "32833", "country": "US", "state": "FL", "display_address": ["Orlando, FL 32833"]}, "phone": "+14073836766", "display_phone": "(407) 383-6766", "distance": 25234.90688355757}, {"id": "lMAtnepDzFy-8B6A2qq5NA", "alias": "diagon-alley-orlando", "name": "Diagon Alley", "image_url": "https://s3-media1.fl.yelpcdn.com/bphoto/yzdl9ySUN0Z0FuZ3RjjdCg/o.jpg", "is_closed": false, "url": "https://www.yelp.com/biz/diagon-alley-orlando?adjust_creative=dMFM0G7PB1QaTw51VlEhfg&utm_campaign=yelp_api_v3&utm_medium=api_v3_business_search&utm_source=dMFM0G7PB1QaTw51VlEhfg", "review_count": 259, "categories": [{"alias": "amusementparks", "title": "Amusement Parks"}], "rating": 5.0, "coordinates": {"latitude": 28.4794109280137, "longitude": -81.4697048050346}, "transactions": [], "location": {"address1": "Exposition Blvd", "address2": "", "address3": "", "city": "Orlando", "zip_code": "32819", "country": "US", "state": "FL", "display_address": ["Exposition Blvd", "Orlando, FL 32819"]}, "phone": "", "display_phone": "", "distance": 12406.782139283301}, {"id": "IppyQzSba7vBIZOB_90ZBw", "alias": "scenic-boat-tour-winter-park", "name": "Scenic Boat Tour", "image_url": "https://s3-media3.fl.yelpcdn.com/bphoto/5wuuBU623Il3eRyPxcm2aQ/o.jpg", "is_closed": false, "url": "https://www.yelp.com/biz/scenic-boat-tour-winter-park?adjust_creative=dMFM0G7PB1QaTw51VlEhfg&utm_campaign=yelp_api_v3&utm_medium=api_v3_business_search&utm_source=dMFM0G7PB1QaTw51VlEhfg", "review_count": 229, "categories": [{"alias": "boattours", "title": "Boat Tours"}], "rating": 4.5, "coordinates": {"latitude": 28.5978394, "longitude": -81.3468475}, "transactions": [], "location": {"address1": "312 E Morse Blvd", "address2": "", "address3": "", "city": "Winter Park", "zip_code": "32789", "country": "US", "state": "FL", "display_address": ["312 E Morse Blvd", "Winter Park, FL 32789"]}, "phone": "+14076444056", "display_phone": "(407) 644-4056", "distance": 13051.745135360788}, {"id": "St41bPkKrKJiwcAYq3g_tw", "alias": "titanic-the-artifact-exhibition-orlando-orlando", "name": "Titanic: The Artifact Exhibition Orlando", "image_url": "https://s3-media2.fl.yelpcdn.com/bphoto/PtmLrHcxOi2eEm1ythWpPA/o.jpg", "is_closed": false, "url": "https://www.yelp.com/biz/titanic-the-artifact-exhibition-orlando-orlando?adjust_creative=dMFM0G7PB1QaTw51VlEhfg&utm_campaign=yelp_api_v3&utm_medium=api_v3_business_search&utm_source=dMFM0G7PB1QaTw51VlEhfg", "review_count": 191, "categories": [{"alias": "museums", "title": "Museums"}], "rating": 4.0, "coordinates": {"latitude": 28.4553128, "longitude": -81.4713406}, "transactions": [], "location": {"address1": "7324 International Dr", "address2": null, "address3": null, "city": "Orlando", "zip_code": "32819", "country": "US", "state": "FL", "display_address": ["7324 International Dr", "Orlando, FL 32819"]}, "phone": "+14072481166", "display_phone": "(407) 248-1166", "distance": 12878.28162763227}, {"id": "8YqErCkI1N0EKqY4tk_zTw", "alias": "tank-america-orlando-3", "name": "Tank America", "image_url": "https://s3-media2.fl.yelpcdn.com/bphoto/-YES1REz6Uk0oJu-F55JKQ/o.jpg", "is_closed": false, "url": "https://www.yelp.com/biz/tank-america-orlando-3?adjust_creative=dMFM0G7PB1QaTw51VlEhfg&utm_campaign=yelp_api_v3&utm_medium=api_v3_business_search&utm_source=dMFM0G7PB1QaTw51VlEhfg", "review_count": 34, "categories": [{"alias": "lasertag", "title": "Laser Tag"}, {"alias": "teambuilding", "title": "Team Building Activities"}], "rating": 5.0, "coordinates": {"latitude": 28.53172, "longitude": -81.30209}, "transactions": [], "location": {"address1": "6605 Muskogee St", "address2": null, "address3": "", "city": "Orlando", "zip_code": "32807", "country": "US", "state": "FL", "display_address": ["6605 Muskogee St", "Orlando, FL 32807"]}, "phone": "+14072138265", "display_phone": "(407) 213-8265", "distance": 10878.002905968975}, {"id": "YrqaTW4MZHyKVri1mnrleA", "alias": "old-town-kissimmee-3", "name": "Old Town", "image_url": "https://s3-media4.fl.yelpcdn.com/bphoto/N0iE5Bp0zj6EdxXr5uhnVw/o.jpg", "is_closed": false, "url": "https://www.yelp.com/biz/old-town-kissimmee-3?adjust_creative=dMFM0G7PB1QaTw51VlEhfg&utm_campaign=yelp_api_v3&utm_medium=api_v3_business_search&utm_source=dMFM0G7PB1QaTw51VlEhfg", "review_count": 250, "categories": [{"alias": "shoppingcenters", "title": "Shopping Centers"}], "rating": 3.5, "coordinates": {"latitude": 28.3324313, "longitude": -81.5158886}, "transactions": [], "price": "$$", "location": {"address1": "5770 W Irlo Bronson Memorial Hwy", "address2": "", "address3": "", "city": "Kissimmee", "zip_code": "34746", "country": "US", "state": "FL", "display_address": ["5770 W Irlo Bronson Memorial Hwy", "Kissimmee, FL 34746"]}, "phone": "+14073964888", "display_phone": "(407) 396-4888", "distance": 23625.35378541644}], "total": 1200, "region": {"center": {"longitude": -81.3427734375, "latitude": 28.4806076910143}}}