{"businesses": [{"id": "sxN6vf4KNWoK5t1uEdZ4rw", "alias": "the-broad-los-angeles-6", "name": "The Broad", "image_url": "https://s3-media2.fl.yelpcdn.com/bphoto/hb99yZMAlQ6hHq8jjc2_Gw/o.jpg", "is_closed": false, "url": "https://www.yelp.com/biz/the-broad-los-angeles-6?adjust_creative=dMFM0G7PB1QaTw51VlEhfg&utm_campaign=yelp_api_v3&utm_medium=api_v3_business_search&utm_source=dMFM0G7PB1QaTw51VlEhfg", "review_count": 2648, "categories": [{"alias": "artmuseums", "title": "Art Museums"}], "rating": 4.5, "coordinates": {"latitude": 34.054493, "longitude": -118.250573}, "transactions": [], "location": {"address1": "221 S Grand Ave", "address2": "", "address3": "", "city": "Los Angeles", "zip_code": "90012", "country": "US", "state": "CA", "display_address": ["221 S Grand Ave", "Los Angeles, CA 90012"]}, "phone": "+12132326200", "display_phone": "(213) 232-6200", "distance": 6530.911820838275}, {"id": "bodDHNERXIOSNx3GAonIGg", "alias": "griffith-observatory-los-angeles-2", "name": "Griffith Observatory", "image_url": "https://s3-media3.fl.yelpcdn.com/bphoto/BjXb7ob5rSwb0XHcYRAoFA/o.jpg", "is_closed": false, "url": "https://www.yelp.com/biz/griffith-observatory-los-angeles-2?adjust_creative=dMFM0G7PB1QaTw51VlEhfg&utm_campaign=yelp_api_v3&utm_medium=api_v3_business_search&utm_source=dMFM0G7PB1QaTw51VlEhfg", "review_count": 3779, "categories": [{"alias": "observatories", "title": "Observatories"}, {"alias": "hiking", "title": "Hiking"}], "rating": 4.5, "coordinates": {"latitude": 34.118555753059425, "longitude": -118.30046115997169}, "transactions": [], "location": {"address1": "2800 E Observatory Rd", "address2": "", "address3": "", "city": "Los Angeles", "zip_code": "90027", "country": "US", "state": "CA", "display_address": ["2800 E Observatory Rd", "Los Angeles, CA 90027"]}, "phone": "+12134730800", "display_phone": "(213) 473-0800", "distance": 6620.799266865875}, {"id": "1GUBBi7G_sXPZV-Wm9dkrQ", "alias": "warner-bros-studio-tour-hollywood-burbank", "name": "Warner Bros. Studio Tour Hollywood", "image_url": "https://s3-media2.fl.yelpcdn.com/bphoto/dhHf-KZpVjpjpWmriP5U_g/o.jpg", "is_closed": false, "url": "https://www.yelp.com/biz/warner-bros-studio-tour-hollywood-burbank?adjust_creative=dMFM0G7PB1QaTw51VlEhfg&utm_campaign=yelp_api_v3&utm_medium=api_v3_business_search&utm_source=dMFM0G7PB1QaTw51VlEhfg", "review_count": 1400, "categories": [{"alias": "amusementparks", "title": "Amusement Parks"}, {"alias": "tours", "title": "Tours"}], "rating": 4.5, "coordinates": {"latitude": 34.151368373427474, "longitude": -118.33575798689438}, "transactions": [], "location": {"address1": "3400 Warner Blvd", "address2": null, "address3": "", "city": "Burbank", "zip_code": "91505", "country": "US", "state": "CA", "display_address": ["3400 Warner Blvd", "Burbank, CA 91505"]}, "phone": "+18774928687", "display_phone": "(877) 492-8687", "distance": 10070.316908894973}, {"id": "92Zv0gSvz3XEMRaLnAClOA", "alias": "the-hobbits-house-culver-city", "name": "The Hobbit's House", "image_url": "https://s3-media2.fl.yelpcdn.com/bphoto/RYu7yFqpIvbZ67uKnoejSg/o.jpg", "is_closed": false, "url": "https://www.yelp.com/biz/the-hobbits-house-culver-city?adjust_creative=dMFM0G7PB1QaTw51VlEhfg&utm_campaign=yelp_api_v3&utm_medium=api_v3_business_search&utm_source=dMFM0G7PB1QaTw51VlEhfg", "review_count": 27, "categories": [{"alias": "localflavor", "title": "Local Flavor"}], "rating": 4.0, "coordinates": {"latitude": 34.02234, "longitude": -118.39938}, "transactions": [], "location": {"address1": "3819 Dunn Dr", "address2": "", "address3": "", "city": "Culver City", "zip_code": "90232", "country": "US", "state": "CA", "display_address": ["3819 Dunn Dr", "Culver City, CA 90232"]}, "phone": "", "display_phone": "", "distance": 8406.52450733971}, {"id": "_a_s-R7COmzQZYI71bh9aQ", "alias": "world-of-illusions-los-angeles", "name": "World of Illusions", "image_url": "https://s3-media3.fl.yelpcdn.com/bphoto/91w2KSTF_iRsrLakFM1TqA/o.jpg", "is_closed": false, "url": "https://www.yelp.com/biz/world-of-illusions-los-angeles?adjust_creative=dMFM0G7PB1QaTw51VlEhfg&utm_campaign=yelp_api_v3&utm_medium=api_v3_business_search&utm_source=dMFM0G7PB1QaTw51VlEhfg", "review_count": 768, "categories": [{"alias": "museums", "title": "Museums"}], "rating": 3.5, "coordinates": {"latitude": 34.1017579797434, "longitude": -118.337645389123}, "transactions": [], "location": {"address1": "6751 Hollywood Blvd", "address2": "", "address3": null, "city": "Los Angeles", "zip_code": "90028", "country": "US", "state": "CA", "display_address": ["6751 Hollywood Blvd", "Los Angeles, CA 90028"]}, "phone": "+18005932902", "display_phone": "(800) 593-2902", "distance": 4711.005793020978}, {"id": "b6RlO51jkzRN3hrMsG3B3A", "alias": "urban-light-at-lacma-los-angeles", "name": "Urban Light at LACMA", "image_url": "https://s3-media4.fl.yelpcdn.com/bphoto/Crpf7datQIHzTuzNPzIpJw/o.jpg", "is_closed": false, "url": "https://www.yelp.com/biz/urban-light-at-lacma-los-angeles?adjust_creative=dMFM0G7PB1QaTw51VlEhfg&utm_campaign=yelp_api_v3&utm_medium=api_v3_business_search&utm_source=dMFM0G7PB1QaTw51VlEhfg", "review_count": 590, "categories": [{"alias": "museums", "title": "Museums"}, {"alias": "landmarks", "title": "Landmarks & Historical Buildings"}], "rating": 4.5, "coordinates": {"latitude": 34.063108458696, "longitude": -118.359158523381}, "transactions": [], "location": {"address1": "5905 Wilshire Blvd", "address2": "", "address3": "", "city": "Los Angeles", "zip_code": "90036", "country": "US", "state": "CA", "display_address": ["5905 Wilshire Blvd", "Los Angeles, CA 90036"]}, "phone": "+13238576000", "display_phone": "(323) 857-6000", "distance": 3484.0818509624523}, {"id": "MmH8oPPDKiHR4R75_XAWeA", "alias": "baldwin-hills-scenic-overlook-culver-city", "name": "Baldwin Hills Scenic Overlook", "image_url": "https://s3-media2.fl.yelpcdn.com/bphoto/Txg35FuFb71z5Lyy-34CAA/o.jpg", "is_closed": false, "url": "https://www.yelp.com/biz/baldwin-hills-scenic-overlook-culver-city?adjust_creative=dMFM0G7PB1QaTw51VlEhfg&utm_campaign=yelp_api_v3&utm_medium=api_v3_business_search&utm_source=dMFM0G7PB1QaTw51VlEhfg", "review_count": 1089, "categories": [{"alias": "parks", "title": "Parks"}, {"alias": "hiking", "title": "Hiking"}], "rating": 4.5, "coordinates": {"latitude": 34.0180219, "longitude": -118.3847045}, "transactions": [], "location": {"address1": "6300 Hetzler Rd", "address2": "", "address3": "", "city": "Culver City", "zip_code": "90232", "country": "US", "state": "CA", "display_address": ["6300 Hetzler Rd", "Culver City, CA 90232"]}, "phone": "+13105585547", "display_phone": "(310) 558-5547", "distance": 7568.11418727368}, {"id": "q_m1xAxOytRLtX-cNE41Ow", "alias": "venice-beach-boardwalk-venice", "name": "Venice Beach Boardwalk", "image_url": "https://s3-media4.fl.yelpcdn.com/bphoto/L0dEsWFi0iSRzLkna1G2Gg/o.jpg", "is_closed": false, "url": "https://www.yelp.com/biz/venice-beach-boardwalk-venice?adjust_creative=dMFM0G7PB1QaTw51VlEhfg&utm_campaign=yelp_api_v3&utm_medium=api_v3_business_search&utm_source=dMFM0G7PB1QaTw51VlEhfg", "review_count": 968, "categories": [{"alias": "beaches", "title": "Beaches"}, {"alias": "popupshops", "title": "Pop-up Shops"}, {"alias": "skate_parks", "title": "Skate Parks"}], "rating": 4.0, "coordinates": {"latitude": 33.9865964450219, "longitude": -118.473995993074}, "transactions": [], "price": "$$", "location": {"address1": "1800 Ocean Front Walk", "address2": null, "address3": "", "city": "Venice", "zip_code": "90291", "country": "US", "state": "CA", "display_address": ["1800 Ocean Front Walk", "Venice, CA 90291"]}, "phone": "+13103966794", "display_phone": "(310) 396-6794", "distance": 16350.993316413187}, {"id": "DuFudjeSXhSbQ2cWmoei2w", "alias": "wisdome-la-los-angeles", "name": "Wisdome LA", "image_url": "https://s3-media3.fl.yelpcdn.com/bphoto/4xHGzVqQnXOrcjspv7i74g/o.jpg", "is_closed": false, "url": "https://www.yelp.com/biz/wisdome-la-los-angeles?adjust_creative=dMFM0G7PB1QaTw51VlEhfg&utm_campaign=yelp_api_v3&utm_medium=api_v3_business_search&utm_source=dMFM0G7PB1QaTw51VlEhfg", "review_count": 215, "categories": [{"alias": "galleries", "title": "Art Galleries"}], "rating": 4.0, "coordinates": {"latitude": 34.04013, "longitude": -118.23695}, "transactions": [], "location": {"address1": "1147 Palmetto St", "address2": null, "address3": "", "city": "Los Angeles", "zip_code": "90013", "country": "US", "state": "CA", "display_address": ["1147 Palmetto St", "Los Angeles, CA 90013"]}, "phone": "", "display_phone": "", "distance": 8132.455738256803}, {"id": "haMlQhLM2jwDqBKmgysRpA", "alias": "museum-of-death-los-angeles-4", "name": "Museum Of Death", "image_url": "https://s3-media2.fl.yelpcdn.com/bphoto/a44ySTiGbk0iHsyqhZpocA/o.jpg", "is_closed": false, "url": "https://www.yelp.com/biz/museum-of-death-los-angeles-4?adjust_creative=dMFM0G7PB1QaTw51VlEhfg&utm_campaign=yelp_api_v3&utm_medium=api_v3_business_search&utm_source=dMFM0G7PB1QaTw51VlEhfg", "review_count": 1053, "categories": [{"alias": "museums", "title": "Museums"}], "rating": 4.0, "coordinates": {"latitude": 34.09998723832732, "longitude": -118.32900443719761}, "transactions": [], "location": {"address1": "6363 Selma Ave", "address2": null, "address3": "", "city": "Los Angeles", "zip_code": "90028", "country": "US", "state": "CA", "display_address": ["6363 Selma Ave", "Los Angeles, CA 90028"]}, "phone": "+13234668011", "display_phone": "(323) 466-8011", "distance": 4326.970836529557}, {"id": "uVnnmDCGZmJn1xoNlabTCA", "alias": "yayoi-kusamas-infinity-mirrored-room-los-angeles", "name": "Yayoi Kusama's Infinity Mirrored Room", "image_url": "https://s3-media1.fl.yelpcdn.com/bphoto/x3hc9YCpg_TqkD8EEXLknw/o.jpg", "is_closed": false, "url": "https://www.yelp.com/biz/yayoi-kusamas-infinity-mirrored-room-los-angeles?adjust_creative=dMFM0G7PB1QaTw51VlEhfg&utm_campaign=yelp_api_v3&utm_medium=api_v3_business_search&utm_source=dMFM0G7PB1QaTw51VlEhfg", "review_count": 79, "categories": [{"alias": "localflavor", "title": "Local Flavor"}], "rating": 4.0, "coordinates": {"latitude": 34.054339, "longitude": -118.250327}, "transactions": [], "location": {"address1": "221 S Grand Ave", "address2": "", "address3": "The Broad", "city": "Los Angeles", "zip_code": "90012", "country": "US", "state": "CA", "display_address": ["221 S Grand Ave", "The Broad", "Los Angeles, CA 90012"]}, "phone": "+12132326200", "display_phone": "(213) 232-6200", "distance": 6595.045508152266}, {"id": "kF_lSWagvBreXwEpCMdHhQ", "alias": "grand-central-market-los-angeles", "name": "Grand Central Market", "image_url": "https://s3-media2.fl.yelpcdn.com/bphoto/LIlimUkl6I71PtsKhNmj3g/o.jpg", "is_closed": false, "url": "https://www.yelp.com/biz/grand-central-market-los-angeles?adjust_creative=dMFM0G7PB1QaTw51VlEhfg&utm_campaign=yelp_api_v3&utm_medium=api_v3_business_search&utm_source=dMFM0G7PB1QaTw51VlEhfg", "review_count": 2897, "categories": [{"alias": "publicmarkets", "title": "Public Markets"}], "rating": 4.0, "coordinates": {"latitude": 34.0506285480471, "longitude": -118.248635262566}, "transactions": [], "price": "$$", "location": {"address1": "317 S Broadway", "address2": "", "address3": "", "city": "Los Angeles", "zip_code": "90013", "country": "US", "state": "CA", "display_address": ["317 S Broadway", "Los Angeles, CA 90013"]}, "phone": "+12133596007", "display_phone": "(213) 359-6007", "distance": 6811.503003331641}, {"id": "0pRWGRFBh385GpiURV1WQg", "alias": "little-tokyo-los-angeles", "name": "Little Tokyo", "image_url": "https://s3-media3.fl.yelpcdn.com/bphoto/0DpppmwWx8WsoEr6J3ZPrA/o.jpg", "is_closed": false, "url": "https://www.yelp.com/biz/little-tokyo-los-angeles?adjust_creative=dMFM0G7PB1QaTw51VlEhfg&utm_campaign=yelp_api_v3&utm_medium=api_v3_business_search&utm_source=dMFM0G7PB1QaTw51VlEhfg", "review_count": 259, "categories": [{"alias": "localflavor", "title": "Local Flavor"}], "rating": 4.5, "coordinates": {"latitude": 34.0492058581647, "longitude": -118.241254679474}, "transactions": [], "location": {"address1": "2ND St", "address2": "", "address3": "", "city": "Los Angeles", "zip_code": "90012", "country": "US", "state": "CA", "display_address": ["2ND St", "Los Angeles, CA 90012"]}, "phone": "", "display_phone": "", "distance": 7508.900894750541}, {"id": "1zxlTe6S_b9VFs1gnDvxDA", "alias": "olvera-street-los-angeles", "name": "Olvera Street", "image_url": "https://s3-media1.fl.yelpcdn.com/bphoto/gOenVoTZBwgtGYjTSEzl1w/o.jpg", "is_closed": false, "url": "https://www.yelp.com/biz/olvera-street-los-angeles?adjust_creative=dMFM0G7PB1QaTw51VlEhfg&utm_campaign=yelp_api_v3&utm_medium=api_v3_business_search&utm_source=dMFM0G7PB1QaTw51VlEhfg", "review_count": 592, "categories": [{"alias": "localflavor", "title": "Local Flavor"}], "rating": 4.0, "coordinates": {"latitude": 34.05756113614534, "longitude": -118.23790307285465}, "transactions": [], "location": {"address1": "845 N Alameda St", "address2": null, "address3": "", "city": "Los Angeles", "zip_code": "90012", "country": "US", "state": "CA", "display_address": ["845 N Alameda St", "Los Angeles, CA 90012"]}, "phone": "+12136281274", "display_phone": "(213) 628-1274", "distance": 7702.983320652715}, {"id": "htp5Vx5GeEU0Sp036Jhs1g", "alias": "dreamscape-los-angeles", "name": "Dreamscape", "image_url": "https://s3-media2.fl.yelpcdn.com/bphoto/P8GD2epJpyh4aD4_Y3V6RQ/o.jpg", "is_closed": false, "url": "https://www.yelp.com/biz/dreamscape-los-angeles?adjust_creative=dMFM0G7PB1QaTw51VlEhfg&utm_campaign=yelp_api_v3&utm_medium=api_v3_business_search&utm_source=dMFM0G7PB1QaTw51VlEhfg", "review_count": 328, "categories": [{"alias": "virtualrealitycenters", "title": "Virtual Reality Centers"}], "rating": 4.5, "coordinates": {"latitude": 34.059019, "longitude": -118.418865837157}, "transactions": [], "location": {"address1": "10250 Santa Monica Blvd", "address2": "Fl 2", "address3": null, "city": "Los Angeles", "zip_code": "90067", "country": "US", "state": "CA", "display_address": ["10250 Santa Monica Blvd", "Fl 2", "Los Angeles, CA 90067"]}, "phone": "+14246032948", "display_phone": "(424) 603-2948", "distance": 8984.805513842966}, {"id": "zRlDhJgcwXEphTUhMaCfyw", "alias": "the-getty-center-los-angeles-7", "name": "The Getty Center", "image_url": "https://s3-media4.fl.yelpcdn.com/bphoto/XfhEmq_oSF7l1D-j4FciHQ/o.jpg", "is_closed": false, "url": "https://www.yelp.com/biz/the-getty-center-los-angeles-7?adjust_creative=dMFM0G7PB1QaTw51VlEhfg&utm_campaign=yelp_api_v3&utm_medium=api_v3_business_search&utm_source=dMFM0G7PB1QaTw51VlEhfg", "review_count": 3562, "categories": [{"alias": "artmuseums", "title": "Art Museums"}], "rating": 4.5, "coordinates": {"latitude": 34.07984, "longitude": -118.4754}, "transactions": [], "location": {"address1": "1200 Getty Ctr Dr", "address2": "", "address3": "", "city": "Los Angeles", "zip_code": "90049", "country": "US", "state": "CA", "display_address": ["1200 Getty Ctr Dr", "Los Angeles, CA 90049"]}, "phone": "+13104407300", "display_phone": "(310) 440-7300", "distance": 14514.675830757587}, {"id": "D-ySHHmSuSsDCEvkZCPYjQ", "alias": "boney-island-los-angeles", "name": "Boney Island", "image_url": "https://s3-media1.fl.yelpcdn.com/bphoto/lz6--MzZxihoZVxIQD4sQA/o.jpg", "is_closed": false, "url": "https://www.yelp.com/biz/boney-island-los-angeles?adjust_creative=dMFM0G7PB1QaTw51VlEhfg&utm_campaign=yelp_api_v3&utm_medium=api_v3_business_search&utm_source=dMFM0G7PB1QaTw51VlEhfg", "review_count": 105, "categories": [{"alias": "theater", "title": "Performing Arts"}, {"alias": "amusementparks", "title": "Amusement Parks"}], "rating": 4.5, "coordinates": {"latitude": 34.1551744, "longitude": -118.3016429}, "transactions": [], "location": {"address1": "5202 Zoo Dr", "address2": "", "address3": "", "city": "Los Angeles", "zip_code": "90027", "country": "US", "state": "CA", "display_address": ["5202 Zoo Dr", "Los Angeles, CA 90027"]}, "phone": "+13236284125", "display_phone": "(323) 628-4125", "distance": 10563.62286255784}, {"id": "1kBfDI-N-Dq287u_Yt0wOw", "alias": "beverly-gardens-park-beverly-hills", "name": "Beverly Gardens Park", "image_url": "https://s3-media2.fl.yelpcdn.com/bphoto/gYdC6G26fnJTGreOW-9LLQ/o.jpg", "is_closed": false, "url": "https://www.yelp.com/biz/beverly-gardens-park-beverly-hills?adjust_creative=dMFM0G7PB1QaTw51VlEhfg&utm_campaign=yelp_api_v3&utm_medium=api_v3_business_search&utm_source=dMFM0G7PB1QaTw51VlEhfg", "review_count": 84, "categories": [{"alias": "parks", "title": "Parks"}], "rating": 4.5, "coordinates": {"latitude": 34.07167, "longitude": -118.40367}, "transactions": [], "location": {"address1": "North Santa Monica Blvd And North Beverly Dr", "address2": "", "address3": "", "city": "Beverly Hills", "zip_code": "90210", "country": "US", "state": "CA", "display_address": ["North Santa Monica Blvd And North Beverly Dr", "Beverly Hills, CA 90210"]}, "phone": "+13102852536", "display_phone": "(310) 285-2536", "distance": 7662.66367820257}, {"id": "zkd9MblsEqZmg4WIGdNbdQ", "alias": "the-bradbury-building-los-angeles", "name": "The Bradbury Building", "image_url": "https://s3-media2.fl.yelpcdn.com/bphoto/L_NenTx8b5dK_p7LiFKaQg/o.jpg", "is_closed": false, "url": "https://www.yelp.com/biz/the-bradbury-building-los-angeles?adjust_creative=dMFM0G7PB1QaTw51VlEhfg&utm_campaign=yelp_api_v3&utm_medium=api_v3_business_search&utm_source=dMFM0G7PB1QaTw51VlEhfg", "review_count": 287, "categories": [{"alias": "landmarks", "title": "Landmarks & Historical Buildings"}], "rating": 4.5, "coordinates": {"latitude": 34.0504924, "longitude": -118.2482567}, "transactions": [], "location": {"address1": "304 S Broadway", "address2": "", "address3": "", "city": "Los Angeles", "zip_code": "90013", "country": "US", "state": "CA", "display_address": ["304 S Broadway", "Los Angeles, CA 90013"]}, "phone": "+12136261893", "display_phone": "(213) 626-1893", "distance": 6887.824158912481}, {"id": "CDIhZlwDJ59FyRv1LOMqLQ", "alias": "greystone-mansion-and-gardens-the-doheny-estate-beverly-hills", "name": "Greystone Mansion & Gardens - The Doheny Estate", "image_url": "https://s3-media3.fl.yelpcdn.com/bphoto/hEtK5o0QjV4ojhUcNKakWw/o.jpg", "is_closed": false, "url": "https://www.yelp.com/biz/greystone-mansion-and-gardens-the-doheny-estate-beverly-hills?adjust_creative=dMFM0G7PB1QaTw51VlEhfg&utm_campaign=yelp_api_v3&utm_medium=api_v3_business_search&utm_source=dMFM0G7PB1QaTw51VlEhfg", "review_count": 359, "categories": [{"alias": "parks", "title": "Parks"}, {"alias": "venues", "title": "Venues & Event Spaces"}], "rating": 4.5, "coordinates": {"latitude": 34.0926873932396, "longitude": -118.401729777774}, "transactions": [], "location": {"address1": "905 Loma Vista Dr", "address2": null, "address3": "", "city": "Beverly Hills", "zip_code": "90210", "country": "US", "state": "CA", "display_address": ["905 Loma Vista Dr", "Beverly Hills, CA 90210"]}, "phone": "+13102856830", "display_phone": "(310) 285-6830", "distance": 8168.266275959184}], "total": 3500, "region": {"center": {"longitude": -118.32138061523438, "latitude": 34.0615895441259}}}