[{"id": "lQI_CHJDXKcs2lWxvj2ZOg", "alias": "area15-las-vegas", "name": "AREA15", "image_url": "https://s3-media1.fl.yelpcdn.com/bphoto/_NwEba99ZA40SeaPKEUAxA/o.jpg", "is_closed": false, "url": "https://www.yelp.com/biz/area15-las-vegas?adjust_creative=dMFM0G7PB1QaTw51VlEhfg&utm_campaign=yelp_api_v3&utm_medium=api_v3_business_search&utm_source=dMFM0G7PB1QaTw51VlEhfg", "review_count": 1508, "categories": [{"alias": "arts", "title": "Arts & Entertainment"}, {"alias": "venues", "title": "Venues & Event Spaces"}], "rating": 4.0, "coordinates": {"latitude": 36.13175823654533, "longitude": -115.18154852282333}, "transactions": [], "location": {"address1": "3215 S Rancho Dr", "address2": null, "address3": "", "city": "Las Vegas", "zip_code": "89102", "country": "US", "state": "NV", "display_address": ["3215 S Rancho Dr", "Las Vegas, NV 89102"]}, "phone": "+17028461900", "display_phone": "(702) 846-1900", "distance": 1110.5341681102373}, {"id": "YzlgswAwmpkMQifS3-YQTw", "alias": "bellagio-conservatory-and-botanical-garden-las-vegas-2", "name": "Bellagio Conservatory & Botanical Garden", "image_url": "https://s3-media4.fl.yelpcdn.com/bphoto/JaPz7bJUXVqJuEbQ6POKsQ/o.jpg", "is_closed": false, "url": "https://www.yelp.com/biz/bellagio-conservatory-and-botanical-garden-las-vegas-2?adjust_creative=dMFM0G7PB1QaTw51VlEhfg&utm_campaign=yelp_api_v3&utm_medium=api_v3_business_search&utm_source=dMFM0G7PB1QaTw51VlEhfg", "review_count": 868, "categories": [{"alias": "gardens", "title": "Botanical Gardens"}], "rating": 4.5, "coordinates": {"latitude": 36.112004, "longitude": -115.176515}, "transactions": [], "location": {"address1": "3600 S Las Vegas Blvd", "address2": "", "address3": "", "city": "Las Vegas", "zip_code": "89109", "country": "US", "state": "NV", "display_address": ["3600 S Las Vegas Blvd", "Las Vegas, NV 89109"]}, "phone": "+17026937111", "display_phone": "(702) 693-7111", "distance": 3002.154249837176}, {"id": "YT6P4rqR4RzWjdOR7Fi9OA", "alias": "omega-mart-meow-wolf-las-vegas", "name": "Omega Mart - Meow Wolf", "image_url": "https://s3-media3.fl.yelpcdn.com/bphoto/yVdjBJwzzCtKeXrULzzpbg/o.jpg", "is_closed": false, "url": "https://www.yelp.com/biz/omega-mart-meow-wolf-las-vegas?adjust_creative=dMFM0G7PB1QaTw51VlEhfg&utm_campaign=yelp_api_v3&utm_medium=api_v3_business_search&utm_source=dMFM0G7PB1QaTw51VlEhfg", "review_count": 912, "categories": [{"alias": "artmuseums", "title": "Art Museums"}], "rating": 3.5, "coordinates": {"latitude": 36.132068, "longitude": -115.181144}, "transactions": [], "location": {"address1": "3215 S Rancho Dr 100", "address2": "Ste 100", "address3": "", "city": "Las Vegas", "zip_code": "89102", "country": "US", "state": "NV", "display_address": ["3215 S Rancho Dr 100", "Ste 100", "Las Vegas, NV 89102"]}, "phone": "+18666369969", "display_phone": "(866) 636-9969", "distance": 1132.3220730188357}, {"id": "_PVqHUwjev4oOXomC7pk3w", "alias": "shark-reef-aquarium-las-vegas-3", "name": "Shark Reef Aquarium", "image_url": "https://s3-media4.fl.yelpcdn.com/bphoto/XgLVbNQfomL9czALov4zlQ/o.jpg", "is_closed": false, "url": "https://www.yelp.com/biz/shark-reef-aquarium-las-vegas-3?adjust_creative=dMFM0G7PB1QaTw51VlEhfg&utm_campaign=yelp_api_v3&utm_medium=api_v3_business_search&utm_source=dMFM0G7PB1QaTw51VlEhfg", "review_count": 1257, "categories": [{"alias": "aquariums", "title": "Aquariums"}], "rating": 3.5, "coordinates": {"latitude": 36.089199, "longitude": -115.175838}, "transactions": [], "location": {"address1": "3950 S Las Vegas Blvd", "address2": "", "address3": "", "city": "Las Vegas", "zip_code": "89119", "country": "US", "state": "NV", "display_address": ["3950 S Las Vegas Blvd", "Las Vegas, NV 89119"]}, "phone": "+17026324555", "display_phone": "(702) 632-4555", "distance": 5372.797755729978}, {"id": "U1cXgftMjQheZfY8QKoXmA", "alias": "the-magical-forest-las-vegas", "name": "The Magical Forest", "image_url": "https://s3-media1.fl.yelpcdn.com/bphoto/Y4Cy8avks_P-aY4nZhPGDQ/o.jpg", "is_closed": false, "url": "https://www.yelp.com/biz/the-magical-forest-las-vegas?adjust_creative=dMFM0G7PB1QaTw51VlEhfg&utm_campaign=yelp_api_v3&utm_medium=api_v3_business_search&utm_source=dMFM0G7PB1QaTw51VlEhfg", "review_count": 178, "categories": [{"alias": "amusementparks", "title": "Amusement Parks"}, {"alias": "nonprofit", "title": "Community Service/Non-Profit"}], "rating": 4.0, "coordinates": {"latitude": 36.152235, "longitude": -115.231684}, "transactions": [], "location": {"address1": "6300 W Oakey Blvd", "address2": "", "address3": "Opportunity Village", "city": "Las Vegas", "zip_code": "89146", "country": "US", "state": "NV", "display_address": ["6300 W Oakey Blvd", "Opportunity Village", "Las Vegas, NV 89146"]}, "phone": "+17022593741", "display_phone": "(702) 259-3741", "distance": 3939.8020821437153}, {"id": "TtDm9VG41xljA15RA4V6sw", "alias": "mods-museum-of-dreamspace-las-vegas", "name": "MODS Museum of Dreamspace", "image_url": "https://s3-media2.fl.yelpcdn.com/bphoto/GXiGLiQ-iidcxYsXuoNPaw/o.jpg", "is_closed": false, "url": "https://www.yelp.com/biz/mods-museum-of-dreamspace-las-vegas?adjust_creative=dMFM0G7PB1QaTw51VlEhfg&utm_campaign=yelp_api_v3&utm_medium=api_v3_business_search&utm_source=dMFM0G7PB1QaTw51VlEhfg", "review_count": 23, "categories": [{"alias": "museums", "title": "Museums"}], "rating": 4.0, "coordinates": {"latitude": 36.12453423347928, "longitude": -115.16867490000001}, "transactions": [], "location": {"address1": "3327 Las Vegas Blvd S", "address2": "Ste 2732", "address3": null, "city": "Las Vegas", "zip_code": "89109", "country": "US", "state": "NV", "display_address": ["3327 Las Vegas Blvd S", "Ste 2732", "Las Vegas, NV 89109"]}, "phone": "", "display_phone": "", "distance": 2502.6677329007102}, {"id": "5qG4UHurI1yEozwn25WAFw", "alias": "blackout-dining-in-the-dark-las-vegas-2", "name": "BLACKOUT Dining in the Dark", "image_url": "https://s3-media2.fl.yelpcdn.com/bphoto/-iplXoxBCUHRPqTJrtoOmg/o.jpg", "is_closed": false, "url": "https://www.yelp.com/biz/blackout-dining-in-the-dark-las-vegas-2?adjust_creative=dMFM0G7PB1QaTw51VlEhfg&utm_campaign=yelp_api_v3&utm_medium=api_v3_business_search&utm_source=dMFM0G7PB1QaTw51VlEhfg", "review_count": 940, "categories": [{"alias": "diners", "title": "Diners"}, {"alias": "venues", "title": "Venues & Event Spaces"}, {"alias": "newamerican", "title": "American (New)"}], "rating": 4.0, "coordinates": {"latitude": 36.119787, "longitude": -115.190605}, "transactions": [], "price": "$$$$", "location": {"address1": "3871 S Valley View Blvd", "address2": "Ste 8", "address3": null, "city": "Las Vegas", "zip_code": "89103", "country": "US", "state": "NV", "display_address": ["3871 S Valley View Blvd", "Ste 8", "Las Vegas, NV 89103"]}, "phone": "+17029604000", "display_phone": "(702) 960-4000", "distance": 1758.4701048447698}, {"id": "B5jgMAnjk_YsPW77anY7Vg", "alias": "escape-vegas-xxx-las-vegas", "name": "Escape Vegas XXX", "image_url": "https://s3-media2.fl.yelpcdn.com/bphoto/qxvAGiUAhe26rb4ACWf8fA/o.jpg", "is_closed": false, "url": "https://www.yelp.com/biz/escape-vegas-xxx-las-vegas?adjust_creative=dMFM0G7PB1QaTw51VlEhfg&utm_campaign=yelp_api_v3&utm_medium=api_v3_business_search&utm_source=dMFM0G7PB1QaTw51VlEhfg", "review_count": 55, "categories": [{"alias": "escapegames", "title": "Escape Games"}, {"alias": "teambuilding", "title": "Team Building Activities"}], "rating": 4.5, "coordinates": {"latitude": 36.13052523979266, "longitude": -115.1741035937953}, "transactions": [], "location": {"address1": "3247 Sammy Davis Jr Dr", "address2": null, "address3": "The Love Boutique", "city": "Las Vegas", "zip_code": "89109", "country": "US", "state": "NV", "display_address": ["3247 Sammy Davis Jr Dr", "The Love Boutique", "Las Vegas, NV 89109"]}, "phone": "+17027315655", "display_phone": "(702) 731-5655", "distance": 1786.2428983267457}, {"id": "JAmQCmczUclNUfZjkNdjQA", "alias": "high-roller-observation-wheel-las-vegas-2", "name": "High Roller", "image_url": "https://s3-media1.fl.yelpcdn.com/bphoto/baVMXIcQUBo2TbanNa0SPw/o.jpg", "is_closed": false, "url": "https://www.yelp.com/biz/high-roller-observation-wheel-las-vegas-2?adjust_creative=dMFM0G7PB1QaTw51VlEhfg&utm_campaign=yelp_api_v3&utm_medium=api_v3_business_search&utm_source=dMFM0G7PB1QaTw51VlEhfg", "review_count": 2422, "categories": [{"alias": "amusementparks", "title": "Amusement Parks"}], "rating": 4.0, "coordinates": {"latitude": 36.117639, "longitude": -115.168295}, "transactions": [], "location": {"address1": "3545 S Las Vegas Blvd", "address2": "", "address3": "", "city": "Las Vegas", "zip_code": "89109", "country": "US", "state": "NV", "display_address": ["3545 S Las Vegas Blvd", "Las Vegas, NV 89109"]}, "phone": "+17023220593", "display_phone": "(702) 322-0593", "distance": 2977.9858907134203}, {"id": "g-Sa8wjQirDxAUszz9VeBA", "alias": "hello-kitty-cafe-las-vegas-4", "name": "Hello Kitty Cafe", "image_url": "https://s3-media3.fl.yelpcdn.com/bphoto/6jhAMWUf-MuujdkSHJga3Q/o.jpg", "is_closed": false, "url": "https://www.yelp.com/biz/hello-kitty-cafe-las-vegas-4?adjust_creative=dMFM0G7PB1QaTw51VlEhfg&utm_campaign=yelp_api_v3&utm_medium=api_v3_business_search&utm_source=dMFM0G7PB1QaTw51VlEhfg", "review_count": 625, "categories": [{"alias": "desserts", "title": "Desserts"}, {"alias": "coffee", "title": "Coffee & Tea"}, {"alias": "themedcafes", "title": "Themed Cafes"}], "rating": 4.0, "coordinates": {"latitude": 36.10354, "longitude": -115.1742802}, "transactions": [], "price": "$$", "location": {"address1": "3778 Las Vegas Blvd", "address2": "", "address3": null, "city": "Las Vegas", "zip_code": "89109", "country": "US", "state": "NV", "display_address": ["3778 Las Vegas Blvd", "Las Vegas, NV 89109"]}, "phone": "", "display_phone": "", "distance": 3930.4162073767193}, {"id": "sVYsjp3fIKSmHKx5LILU2A", "alias": "flyover-las-vegas-las-vegas-2", "name": "FlyOver Las Vegas", "image_url": "https://s3-media2.fl.yelpcdn.com/bphoto/a76bbZvsSfZyhT0lBq6iVA/o.jpg", "is_closed": false, "url": "https://www.yelp.com/biz/flyover-las-vegas-las-vegas-2?adjust_creative=dMFM0G7PB1QaTw51VlEhfg&utm_campaign=yelp_api_v3&utm_medium=api_v3_business_search&utm_source=dMFM0G7PB1QaTw51VlEhfg", "review_count": 220, "categories": [{"alias": "amusementparks", "title": "Amusement Parks"}], "rating": 4.5, "coordinates": {"latitude": 36.10420501135815, "longitude": -115.1717520052973}, "transactions": [], "location": {"address1": "3771 Las Vegas Blvd S", "address2": "Ste 150", "address3": null, "city": "Las Vegas", "zip_code": "89109", "country": "US", "state": "NV", "display_address": ["3771 Las Vegas Blvd S", "Ste 150", "Las Vegas, NV 89109"]}, "phone": "+18664982023", "display_phone": "(866) 498-2023", "distance": 3967.94227036154}, {"id": "XU-52fK8L5e9cpwPgvp34Q", "alias": "seven-magic-mountains-las-vegas", "name": "Seven Magic Mountains", "image_url": "https://s3-media1.fl.yelpcdn.com/bphoto/502N_I-QEJSd01FfXk3SXg/o.jpg", "is_closed": false, "url": "https://www.yelp.com/biz/seven-magic-mountains-las-vegas?adjust_creative=dMFM0G7PB1QaTw51VlEhfg&utm_campaign=yelp_api_v3&utm_medium=api_v3_business_search&utm_source=dMFM0G7PB1QaTw51VlEhfg", "review_count": 977, "categories": [{"alias": "publicart", "title": "Public Art"}], "rating": 4.5, "coordinates": {"latitude": 35.838444, "longitude": -115.270969}, "transactions": [], "location": {"address1": "S Las Vegas Blvd", "address2": "", "address3": "", "city": "Las Vegas", "zip_code": "89054", "country": "US", "state": "NV", "display_address": ["S Las Vegas Blvd", "Las Vegas, NV 89054"]}, "phone": "+17753293333", "display_phone": "(775) 329-3333", "distance": 33765.202030432934}, {"id": "g83WbX_recywc4DEIZ-xug", "alias": "the-neon-museum-las-vegas", "name": "The Neon Museum", "image_url": "https://s3-media1.fl.yelpcdn.com/bphoto/8pJy74NqDAWp40iNoG6fLw/o.jpg", "is_closed": false, "url": "https://www.yelp.com/biz/the-neon-museum-las-vegas?adjust_creative=dMFM0G7PB1QaTw51VlEhfg&utm_campaign=yelp_api_v3&utm_medium=api_v3_business_search&utm_source=dMFM0G7PB1QaTw51VlEhfg", "review_count": 1832, "categories": [{"alias": "museums", "title": "Museums"}], "rating": 4.0, "coordinates": {"latitude": 36.176989, "longitude": -115.135347}, "transactions": [], "location": {"address1": "770 North Las Vegas Blvd", "address2": "", "address3": "", "city": "Las Vegas", "zip_code": "89101", "country": "US", "state": "NV", "display_address": ["770 North Las Vegas Blvd", "Las Vegas, NV 89101"]}, "phone": "+17023876366", "display_phone": "(702) 387-6366", "distance": 6936.6613207974115}, {"id": "3W2P7F5yeqTHigRAXLd2pg", "alias": "sin-city-smash-las-vegas-2", "name": "Sin City Smash", "image_url": "https://s3-media2.fl.yelpcdn.com/bphoto/8o4tjh2yMw6m4IsQtgFujA/o.jpg", "is_closed": false, "url": "https://www.yelp.com/biz/sin-city-smash-las-vegas-2?adjust_creative=dMFM0G7PB1QaTw51VlEhfg&utm_campaign=yelp_api_v3&utm_medium=api_v3_business_search&utm_source=dMFM0G7PB1QaTw51VlEhfg", "review_count": 245, "categories": [{"alias": "amusementparks", "title": "Amusement Parks"}, {"alias": "venues", "title": "Venues & Event Spaces"}, {"alias": "teambuilding", "title": "Team Building Activities"}], "rating": 5.0, "coordinates": {"latitude": 36.066877, "longitude": -115.176653}, "transactions": [], "location": {"address1": "6623 S Las Vegas Blvd", "address2": "Ste 139", "address3": "", "city": "Las Vegas", "zip_code": "89119", "country": "US", "state": "NV", "display_address": ["6623 S Las Vegas Blvd", "Ste 139", "Las Vegas, NV 89119"]}, "phone": "+17029121344", "display_phone": "(702) 912-1344", "distance": 7762.906101097847}, {"id": "zGgc_7rok8kq77qQF3KEKg", "alias": "twilight-zone-by-monster-mini-golf-las-vegas", "name": "Twilight Zone By Monster Mini Golf", "image_url": "https://s3-media3.fl.yelpcdn.com/bphoto/iXZ9zsoEfjxJnaiVxotBRg/o.jpg", "is_closed": false, "url": "https://www.yelp.com/biz/twilight-zone-by-monster-mini-golf-las-vegas?adjust_creative=dMFM0G7PB1QaTw51VlEhfg&utm_campaign=yelp_api_v3&utm_medium=api_v3_business_search&utm_source=dMFM0G7PB1QaTw51VlEhfg", "review_count": 243, "categories": [{"alias": "mini_golf", "title": "Mini Golf"}, {"alias": "bowling", "title": "Bowling"}, {"alias": "weddingchappels", "title": "Wedding Chapels"}], "rating": 4.5, "coordinates": {"latitude": 36.11240888456139, "longitude": -115.16747385276113}, "transactions": [], "location": {"address1": "3645 S Las Vegas Blvd", "address2": "", "address3": "", "city": "Las Vegas", "zip_code": "89109", "country": "US", "state": "NV", "display_address": ["3645 S Las Vegas Blvd", "Las Vegas, NV 89109"]}, "phone": "+17023332121", "display_phone": "(702) 333-2121", "distance": 3442.013881603729}, {"id": "PBTR1QtIhTTqa2D7iuFUHw", "alias": "the-naked-magicians-las-vegas", "name": "The Naked Magicians", "image_url": "https://s3-media2.fl.yelpcdn.com/bphoto/SNvUY7pbxFl-TvD589swEw/o.jpg", "is_closed": false, "url": "https://www.yelp.com/biz/the-naked-magicians-las-vegas?adjust_creative=dMFM0G7PB1QaTw51VlEhfg&utm_campaign=yelp_api_v3&utm_medium=api_v3_business_search&utm_source=dMFM0G7PB1QaTw51VlEhfg", "review_count": 56, "categories": [{"alias": "magicians", "title": "Magicians"}], "rating": 5.0, "coordinates": {"latitude": 36.102254, "longitude": -115.16997}, "transactions": [], "location": {"address1": "3799 S Las Vegas Blvd", "address2": null, "address3": "", "city": "Las Vegas", "zip_code": "89109", "country": "US", "state": "NV", "display_address": ["3799 S Las Vegas Blvd", "Las Vegas, NV 89109"]}, "phone": "+18667407711", "display_phone": "(866) 740-7711", "distance": 4235.315633225491}, {"id": "w-As0KSwy8pqMClOea-NLQ", "alias": "the-mob-museum-las-vegas", "name": "The Mob Museum", "image_url": "https://s3-media3.fl.yelpcdn.com/bphoto/6KjfvUgfVN_CqVcpHY3O2w/o.jpg", "is_closed": false, "url": "https://www.yelp.com/biz/the-mob-museum-las-vegas?adjust_creative=dMFM0G7PB1QaTw51VlEhfg&utm_campaign=yelp_api_v3&utm_medium=api_v3_business_search&utm_source=dMFM0G7PB1QaTw51VlEhfg", "review_count": 1640, "categories": [{"alias": "museums", "title": "Museums"}], "rating": 4.5, "coordinates": {"latitude": 36.173, "longitude": -115.14126}, "transactions": [], "location": {"address1": "300 Stewart Ave", "address2": "", "address3": "", "city": "Las Vegas", "zip_code": "89101", "country": "US", "state": "NV", "display_address": ["300 Stewart Ave", "Las Vegas, NV 89101"]}, "phone": "+17022292734", "display_phone": "(702) 229-2734", "distance": 6232.783360332355}, {"id": "rioQ_p2pILNbJ4Xp5jW6-Q", "alias": "downtown-container-park-las-vegas-2", "name": "Downtown Container Park", "image_url": "https://s3-media3.fl.yelpcdn.com/bphoto/GWDXEHDc39PnPHZrNsZa-g/o.jpg", "is_closed": false, "url": "https://www.yelp.com/biz/downtown-container-park-las-vegas-2?adjust_creative=dMFM0G7PB1QaTw51VlEhfg&utm_campaign=yelp_api_v3&utm_medium=api_v3_business_search&utm_source=dMFM0G7PB1QaTw51VlEhfg", "review_count": 1013, "categories": [{"alias": "shoppingcenters", "title": "Shopping Centers"}], "rating": 4.0, "coordinates": {"latitude": 36.168024, "longitude": -115.138276}, "transactions": [], "price": "$$", "location": {"address1": "707 Fremont St", "address2": "", "address3": "", "city": "Las Vegas", "zip_code": "89101", "country": "US", "state": "NV", "display_address": ["707 Fremont St", "Las Vegas, NV 89101"]}, "phone": "+17023599982", "display_phone": "(702) 359-9982", "distance": 6103.882591441804}, {"id": "j8opwJ1ZM55hI3AMHT37MA", "alias": "marvels-avengers-station-las-vegas", "name": "Marvel's Avengers Station", "image_url": "https://s3-media2.fl.yelpcdn.com/bphoto/62PRKcSNYK6aIm7AM_kQKA/o.jpg", "is_closed": false, "url": "https://www.yelp.com/biz/marvels-avengers-station-las-vegas?adjust_creative=dMFM0G7PB1QaTw51VlEhfg&utm_campaign=yelp_api_v3&utm_medium=api_v3_business_search&utm_source=dMFM0G7PB1QaTw51VlEhfg", "review_count": 1426, "categories": [{"alias": "museums", "title": "Museums"}], "rating": 4.0, "coordinates": {"latitude": 36.12509, "longitude": -115.17045}, "transactions": [], "location": {"address1": "3300 Las Vegas Blvd", "address2": null, "address3": "", "city": "Las Vegas", "zip_code": "89109", "country": "US", "state": "NV", "display_address": ["3300 Las Vegas Blvd", "Las Vegas, NV 89109"]}, "phone": "+17028947626", "display_phone": "(702) 894-7626", "distance": 2333.427228894617}, {"id": "3xmfT7l3xNH5LK1dLzfvGw", "alias": "fremont-street-experience-las-vegas", "name": "Fremont Street Experience", "image_url": "https://s3-media1.fl.yelpcdn.com/bphoto/gewVMU45mED-e3ZIuIWCgg/o.jpg", "is_closed": false, "url": "https://www.yelp.com/biz/fremont-street-experience-las-vegas?adjust_creative=dMFM0G7PB1QaTw51VlEhfg&utm_campaign=yelp_api_v3&utm_medium=api_v3_business_search&utm_source=dMFM0G7PB1QaTw51VlEhfg", "review_count": 1933, "categories": [{"alias": "bars", "title": "Bars"}, {"alias": "casinos", "title": "Casinos"}], "rating": 3.5, "coordinates": {"latitude": 36.1695422977209, "longitude": -115.141493082047}, "transactions": [], "price": "$$", "location": {"address1": "425 Fremont St", "address2": "", "address3": "", "city": "Las Vegas", "zip_code": "89101", "country": "US", "state": "NV", "display_address": ["425 Fremont St", "Las Vegas, NV 89101"]}, "phone": "+17026785600", "display_phone": "(702) 678-5600", "distance": 5965.362683697463}]