{"results": [{"fsq_id": "4feb8f93e4b0a19839c43cd2", "categories": [{"id": 13007, "name": "Beer Garden", "icon": {"prefix": "https://ss3.4sqi.net/img/categories_v2/nightlife/beergarden_", "suffix": ".png"}}, {"id": 13068, "name": "American Restaurant", "icon": {"prefix": "https://ss3.4sqi.net/img/categories_v2/food/default_", "suffix": ".png"}}, {"id": 13165, "name": "German Restaurant", "icon": {"prefix": "https://ss3.4sqi.net/img/categories_v2/food/german_", "suffix": ".png"}}], "chains": [], "distance": 3308, "geocodes": {"main": {"latitude": 30.258873, "longitude": -97.738356}, "roof": {"latitude": 30.258873, "longitude": -97.738356}}, "link": "/v3/places/4feb8f93e4b0a19839c43cd2", "location": {"address": "79 Rainey St", "census_block": "484530011031003", "country": "US", "cross_street": "btwn Davis & River St.", "dma": "Austin", "formatted_address": "79 Rainey St (btwn Davis & River St.), Austin, TX 78701", "locality": "Austin", "postcode": "78701", "region": "TX"}, "name": "Banger's Sausage House & Beer Garden", "related_places": {"children": [{"fsq_id": "5c820334cbcdee002c635182", "name": "Bangers Basement"}]}, "timezone": "America/Chicago"}, {"fsq_id": "59f6276c35d3fc2f6285e76f", "categories": [{"id": 16017, "name": "Garden", "icon": {"prefix": "https://ss3.4sqi.net/img/categories_v2/parks_outdoors/garden_", "suffix": ".png"}}], "chains": [], "distance": 2771, "geocodes": {"main": {"latitude": 30.266042, "longitude": -97.751737}, "roof": {"latitude": 30.266042, "longitude": -97.751737}}, "link": "/v3/places/59f6276c35d3fc2f6285e76f", "location": {"census_block": "484530012004016", "country": "US", "cross_street": "", "dma": "Austin", "formatted_address": "Austin, TX 78701", "locality": "Austin", "postcode": "78701", "region": "TX"}, "name": "Rooftop Garden", "related_places": {"parent": {"fsq_id": "51a77615498e47fb2df9e84d", "name": "Austin Central Library"}}, "timezone": "America/Chicago"}, {"fsq_id": "4ae6071ef964a5202da421e3", "categories": [{"id": 16005, "name": "Botanical Garden", "icon": {"prefix": "https://ss3.4sqi.net/img/categories_v2/parks_outdoors/botanicalgarden_", "suffix": ".png"}}], "chains": [], "distance": 3770, "geocodes": {"main": {"latitude": 30.268749, "longitude": -97.771544}, "roof": {"latitude": 30.268749, "longitude": -97.771544}}, "link": "/v3/places/4ae6071ef964a5202da421e3", "location": {"address": "2220 Barton Springs Rd", "census_block": "484530019113003", "country": "US", "dma": "Austin", "formatted_address": "2220 Barton Springs Rd, Austin, TX 78746", "locality": "Austin", "postcode": "78746", "region": "TX"}, "name": "Zilker Botanical Garden", "related_places": {"parent": {"fsq_id": "453c8566f964a520123c1fe3", "name": "Zilker Metropolitan Park"}, "children": [{"fsq_id": "6071fdffca40527f70ac19d1", "name": "Historical Cabins"}, {"fsq_id": "4e35c290fa7656ba3174a561", "name": "Zilker Rose Garden"}, {"fsq_id": "51509187e4b0176618d0ab73", "name": "Isamu Taniguchi Oriental Garden"}]}, "timezone": "America/Chicago"}, {"fsq_id": "4b902f63f964a520e67a33e3", "categories": [{"id": 12086, "name": "Non-Profit Organization", "icon": {"prefix": "https://ss3.4sqi.net/img/categories_v2/building/default_", "suffix": ".png"}}], "chains": [], "distance": 3235, "geocodes": {"main": {"latitude": 30.317067, "longitude": -97.73559}}, "link": "/v3/places/4b902f63f964a520e67a33e3", "location": {"address": "4814 Sunshine Dr", "census_block": "484530002032003", "country": "US", "dma": "Austin", "formatted_address": "4814 Sunshine Dr, Austin, TX 78756", "locality": "Austin", "postcode": "78756", "region": "TX"}, "name": "Sunshine Garden", "related_places": {}, "timezone": "America/Chicago"}, {"fsq_id": "5a54fffbacc5f564533e67c4", "categories": [{"id": 13003, "name": "Bar", "icon": {"prefix": "https://ss3.4sqi.net/img/categories_v2/nightlife/pub_", "suffix": ".png"}}, {"id": 13035, "name": "Coffee Shop", "icon": {"prefix": "https://ss3.4sqi.net/img/categories_v2/food/coffeeshop_", "suffix": ".png"}}], "chains": [], "distance": 7207, "geocodes": {"main": {"latitude": 30.227229, "longitude": -97.763008}, "roof": {"latitude": 30.227229, "longitude": -97.763008}}, "link": "/v3/places/5a54fffbacc5f564533e67c4", "location": {"address": "121 Pickle Rd", "census_block": "484530013081004", "country": "US", "cross_street": "S Congress Ave", "dma": "Austin", "formatted_address": "121 Pickle Rd (S Congress Ave), Austin, TX 78704", "locality": "Austin", "postcode": "78704", "region": "TX"}, "name": "Cosmic Coffee + Beer Garden", "related_places": {"children": [{"fsq_id": "58f25fac0868a239e692a2ec", "name": "LeRoy & Lewis"}, {"fsq_id": "5a68da4b6dcf0448e8ed07db", "name": "Pueblo Viejo"}]}, "timezone": "America/Chicago"}, {"fsq_id": "4f09de86e4b05dd3a49723ae", "categories": [{"id": 16017, "name": "Garden", "icon": {"prefix": "https://ss3.4sqi.net/img/categories_v2/parks_outdoors/garden_", "suffix": ".png"}}], "chains": [], "distance": 3948, "geocodes": {"main": {"latitude": 30.253667, "longitude": -97.735161}}, "link": "/v3/places/4f09de86e4b05dd3a49723ae", "location": {"address": "35 Waller St", "census_block": "484530010005004", "country": "US", "cross_street": "", "dma": "Austin", "formatted_address": "35 Waller St, Austin, TX 78702", "locality": "Austin", "postcode": "78702", "region": "TX"}, "name": "Festival Beach Community Garden", "related_places": {}, "timezone": "America/Chicago"}, {"fsq_id": "4e35c290fa7656ba3174a561", "categories": [{"id": 16000, "name": "Landmarks and Outdoors", "icon": {"prefix": "https://ss3.4sqi.net/img/categories_v2/parks_outdoors/default_", "suffix": ".png"}}], "chains": [], "distance": 3988, "geocodes": {"main": {"latitude": 30.265501, "longitude": -97.771634}}, "link": "/v3/places/4e35c290fa7656ba3174a561", "location": {"census_block": "484530019113008", "country": "US", "cross_street": "Inside Zilker Botanical gardens", "dma": "Austin", "formatted_address": "Inside Zilker Botanical gardens, Austin, TX 78746", "locality": "Austin", "postcode": "78746", "region": "TX"}, "name": "Zilker Rose Garden", "related_places": {"parent": {"fsq_id": "4ae6071ef964a5202da421e3", "name": "Zilker Botanical Garden"}}, "timezone": "America/Chicago"}, {"fsq_id": "5e51964d7f39440008e577a2", "categories": [{"id": 17101, "name": "Garden Center", "icon": {"prefix": "https://ss3.4sqi.net/img/categories_v2/parks_outdoors/gardencenter_", "suffix": ".png"}}], "chains": [], "distance": 5545, "geocodes": {"drop_off": {"latitude": 30.334623, "longitude": -97.719126}, "main": {"latitude": 30.335079, "longitude": -97.718905}, "roof": {"latitude": 30.335079, "longitude": -97.718905}}, "link": "/v3/places/5e51964d7f39440008e577a2", "location": {"address": "600 Williams St", "census_block": "484530015033002", "country": "US", "cross_street": "", "dma": "Austin", "formatted_address": "600 Williams St, Austin, TX 78752", "locality": "Austin", "postcode": "78752", "region": "TX"}, "name": "Garden Seventeen", "related_places": {"children": [{"fsq_id": "61155292ab6ab723bb469895", "name": "604 Coffee"}]}, "timezone": "America/Chicago"}, {"fsq_id": "50199f4ee4b02a11fbf069cb", "categories": [{"id": 17101, "name": "Garden Center", "icon": {"prefix": "https://ss3.4sqi.net/img/categories_v2/parks_outdoors/gardencenter_", "suffix": ".png"}}], "chains": [], "distance": 4587, "geocodes": {"main": {"latitude": 30.261056, "longitude": -97.704128}, "roof": {"latitude": 30.261056, "longitude": -97.704128}}, "link": "/v3/places/50199f4ee4b02a11fbf069cb", "location": {"address": "801 Tillery St", "census_block": "484530009021002", "country": "US", "cross_street": "", "dma": "Austin", "formatted_address": "801 Tillery St, Austin, TX 78702", "locality": "Austin", "postcode": "78702", "region": "TX"}, "name": "East Austin Succulents", "related_places": {}, "timezone": "America/Chicago"}, {"fsq_id": "4d6d802ffcde2c0fd33b8e81", "categories": [{"id": 19014, "name": "Hotel", "icon": {"prefix": "https://ss3.4sqi.net/img/categories_v2/travel/hotel_", "suffix": ".png"}}], "chains": [], "distance": 2626, "geocodes": {"drop_off": {"latitude": 30.265278, "longitude": -97.735263}, "main": {"latitude": 30.265412, "longitude": -97.735614}, "roof": {"latitude": 30.265412, "longitude": -97.735614}}, "link": "/v3/places/4d6d802ffcde2c0fd33b8e81", "location": {"address": "500 N Interstate 35", "census_block": "484530011032001", "country": "US", "cross_street": "E. 5th St.", "dma": "Austin", "formatted_address": "500 N Interstate 35 (E. 5th St.), Austin, TX 78701", "locality": "Austin", "postcode": "78701", "region": "TX"}, "name": "Hilton Garden Inn", "related_places": {"children": [{"fsq_id": "4d6ea1ad451c41bd5d132845", "name": "Ballroom G"}]}, "timezone": "America/Chicago"}], "context": {"geo_bounds": {"circle": {"center": {"latitude": 30.2887, "longitude": -97.7398}, "radius": 22000}}}}