{"businesses": [{"id": "lQMuGcu6wgXvX_4XlVmW7Q", "alias": "shit-fountain-chicago", "name": "Shit Fountain", "image_url": "https://s3-media1.fl.yelpcdn.com/bphoto/CTr94cC6ciSZfp5ppYfniw/o.jpg", "is_closed": false, "url": "https://www.yelp.com/biz/shit-fountain-chicago?adjust_creative=dMFM0G7PB1QaTw51VlEhfg&utm_campaign=yelp_api_v3&utm_medium=api_v3_business_search&utm_source=dMFM0G7PB1QaTw51VlEhfg", "review_count": 61, "categories": [{"alias": "publicart", "title": "Public Art"}], "rating": 4.5, "coordinates": {"latitude": 41.899715423584, "longitude": -87.674446105957}, "transactions": [], "location": {"address1": "1001 N Wolcott Ave", "address2": null, "address3": "", "city": "Chicago", "zip_code": "60622", "country": "US", "state": "IL", "display_address": ["1001 N Wolcott Ave", "Chicago, IL 60622"]}, "phone": "", "display_phone": "", "distance": 8880.626528749683}, {"id": "esdbP3ict5RGXsZndhRrcg", "alias": "360-chicago-chicago", "name": "360 Chicago", "image_url": "https://s3-media2.fl.yelpcdn.com/bphoto/ZdsShlwmQzoVgcMSTYn5pQ/o.jpg", "is_closed": false, "url": "https://www.yelp.com/biz/360-chicago-chicago?adjust_creative=dMFM0G7PB1QaTw51VlEhfg&utm_campaign=yelp_api_v3&utm_medium=api_v3_business_search&utm_source=dMFM0G7PB1QaTw51VlEhfg", "review_count": 908, "categories": [{"alias": "landmarks", "title": "Landmarks & Historical Buildings"}, {"alias": "observatories", "title": "Observatories"}], "rating": 4.0, "coordinates": {"latitude": 41.8986806, "longitude": -87.6239087}, "transactions": [], "location": {"address1": "875 N Michigan Ave", "address2": "Fl 94", "address3": "", "city": "Chicago", "zip_code": "60611", "country": "US", "state": "IL", "display_address": ["875 N Michigan Ave", "Fl 94", "Chicago, IL 60611"]}, "phone": "+18888758439", "display_phone": "(888) 875-8439", "distance": 11641.666023149908}, {"id": "KbZ9cSMoAIsTWASs6m5mJw", "alias": "willis-tower-chicago-3", "name": "Willis Tower", "image_url": "https://s3-media2.fl.yelpcdn.com/bphoto/MGEv2FBVtgga228sCUJVOw/o.jpg", "is_closed": false, "url": "https://www.yelp.com/biz/willis-tower-chicago-3?adjust_creative=dMFM0G7PB1QaTw51VlEhfg&utm_campaign=yelp_api_v3&utm_medium=api_v3_business_search&utm_source=dMFM0G7PB1QaTw51VlEhfg", "review_count": 1451, "categories": [{"alias": "landmarks", "title": "Landmarks & Historical Buildings"}], "rating": 4.0, "coordinates": {"latitude": 41.8787339974903, "longitude": -87.635894766129}, "transactions": [], "location": {"address1": "233 S Wacker Dr", "address2": "", "address3": "", "city": "Chicago", "zip_code": "60602", "country": "US", "state": "IL", "display_address": ["233 S Wacker Dr", "Chicago, IL 60602"]}, "phone": "+13128759696", "display_phone": "(312) 875-9696", "distance": 9458.921531529948}, {"id": "JfNZVzh052lwZKpIMgsA1g", "alias": "garfield-park-conservatory-chicago", "name": "Garfield Park Conservatory", "image_url": "https://s3-media1.fl.yelpcdn.com/bphoto/QKVGRMuMrXxkZ1nR3_Zt8g/o.jpg", "is_closed": false, "url": "https://www.yelp.com/biz/garfield-park-conservatory-chicago?adjust_creative=dMFM0G7PB1QaTw51VlEhfg&utm_campaign=yelp_api_v3&utm_medium=api_v3_business_search&utm_source=dMFM0G7PB1QaTw51VlEhfg", "review_count": 751, "categories": [{"alias": "parks", "title": "Parks"}, {"alias": "gardens", "title": "Botanical Gardens"}, {"alias": "hiking", "title": "Hiking"}], "rating": 5.0, "coordinates": {"latitude": 41.8864959, "longitude": -87.717822}, "transactions": [], "location": {"address1": "300 N Central Park Ave", "address2": "", "address3": "", "city": "Chicago", "zip_code": "60624", "country": "US", "state": "IL", "display_address": ["300 N Central Park Ave", "Chicago, IL 60624"]}, "phone": "+17736381766", "display_phone": "(773) 638-1766", "distance": 6162.065670917301}, {"id": "2DfcXGtDv7T_rnvl4lHzaQ", "alias": "millennium-park-chicago", "name": "Millennium Park", "image_url": "https://s3-media4.fl.yelpcdn.com/bphoto/oBEH7svtXzkS0nAsc6oH_g/o.jpg", "is_closed": false, "url": "https://www.yelp.com/biz/millennium-park-chicago?adjust_creative=dMFM0G7PB1QaTw51VlEhfg&utm_campaign=yelp_api_v3&utm_medium=api_v3_business_search&utm_source=dMFM0G7PB1QaTw51VlEhfg", "review_count": 1379, "categories": [{"alias": "parks", "title": "Parks"}], "rating": 4.5, "coordinates": {"latitude": 41.88339, "longitude": -87.6218446}, "transactions": [], "location": {"address1": "201 E Randolph St", "address2": "", "address3": "", "city": "Chicago", "zip_code": "60602", "country": "US", "state": "IL", "display_address": ["201 E Randolph St", "Chicago, IL 60602"]}, "phone": "+13127421168", "display_phone": "(312) 742-1168", "distance": 10717.376329977775}, {"id": "kSDupSRuYSQKCQ4f0TABWw", "alias": "chicago-riverwalk-chicago-3", "name": "Chicago Riverwalk", "image_url": "https://s3-media1.fl.yelpcdn.com/bphoto/c2uOrsZENNIZdLGewLrTAQ/o.jpg", "is_closed": false, "url": "https://www.yelp.com/biz/chicago-riverwalk-chicago-3?adjust_creative=dMFM0G7PB1QaTw51VlEhfg&utm_campaign=yelp_api_v3&utm_medium=api_v3_business_search&utm_source=dMFM0G7PB1QaTw51VlEhfg", "review_count": 215, "categories": [{"alias": "landmarks", "title": "Landmarks & Historical Buildings"}], "rating": 4.5, "coordinates": {"latitude": 41.8875448, "longitude": -87.6174791}, "transactions": [], "location": {"address1": "400 E Lower Wacker Dr", "address2": "", "address3": "", "city": "Chicago", "zip_code": "60601", "country": "US", "state": "IL", "display_address": ["400 E Lower Wacker Dr", "Chicago, IL 60601"]}, "phone": "", "display_phone": "", "distance": 11271.054627576788}, {"id": "X7inrhYbhtjgJ4MrwtPlJQ", "alias": "museum-of-science-and-industry-chicago-3", "name": "Museum of Science and Industry", "image_url": "https://s3-media2.fl.yelpcdn.com/bphoto/SZrWTWyP0_JzXT7qEIZFew/o.jpg", "is_closed": false, "url": "https://www.yelp.com/biz/museum-of-science-and-industry-chicago-3?adjust_creative=dMFM0G7PB1QaTw51VlEhfg&utm_campaign=yelp_api_v3&utm_medium=api_v3_business_search&utm_source=dMFM0G7PB1QaTw51VlEhfg", "review_count": 1402, "categories": [{"alias": "museums", "title": "Museums"}, {"alias": "venues", "title": "Venues & Event Spaces"}], "rating": 4.5, "coordinates": {"latitude": 41.79174737602096, "longitude": -87.58414478805543}, "transactions": [], "location": {"address1": "5700 S DuSable Lake Shore Dr", "address2": "", "address3": "", "city": "Chicago", "zip_code": "60637", "country": "US", "state": "IL", "display_address": ["5700 S DuSable Lake Shore Dr", "Chicago, IL 60637"]}, "phone": "+17736841414", "display_phone": "(773) 684-1414", "distance": 12993.038984970304}, {"id": "0c0sRK0EJy-0cpKm8T3rbg", "alias": "chicago-architecture-center-chicago", "name": "Chicago Architecture Center", "image_url": "https://s3-media3.fl.yelpcdn.com/bphoto/9kKmDWrdhJj1L-x7AK5njw/o.jpg", "is_closed": false, "url": "https://www.yelp.com/biz/chicago-architecture-center-chicago?adjust_creative=dMFM0G7PB1QaTw51VlEhfg&utm_campaign=yelp_api_v3&utm_medium=api_v3_business_search&utm_source=dMFM0G7PB1QaTw51VlEhfg", "review_count": 484, "categories": [{"alias": "museums", "title": "Museums"}, {"alias": "tours", "title": "Tours"}, {"alias": "giftshops", "title": "Gift Shops"}], "rating": 4.5, "coordinates": {"latitude": 41.888041737312, "longitude": -87.6235734860398}, "transactions": [], "price": "$", "location": {"address1": "111 E Wacker Dr", "address2": "", "address3": "", "city": "Chicago", "zip_code": "60601", "country": "US", "state": "IL", "display_address": ["111 E Wacker Dr", "Chicago, IL 60601"]}, "phone": "+13129223432", "display_phone": "(312) 922-3432", "distance": 10883.910719111724}, {"id": "XAh7Xce30KGmL_CTCdHAhg", "alias": "shedd-aquarium-chicago", "name": "Shedd Aquarium", "image_url": "https://s3-media1.fl.yelpcdn.com/bphoto/kQRCE9HGLRWG8im8u-WNrA/o.jpg", "is_closed": false, "url": "https://www.yelp.com/biz/shedd-aquarium-chicago?adjust_creative=dMFM0G7PB1QaTw51VlEhfg&utm_campaign=yelp_api_v3&utm_medium=api_v3_business_search&utm_source=dMFM0G7PB1QaTw51VlEhfg", "review_count": 2029, "categories": [{"alias": "aquariums", "title": "Aquariums"}], "rating": 3.5, "coordinates": {"latitude": 41.867572601856395, "longitude": -87.61403659583402}, "transactions": [], "location": {"address1": "1200 S DuSable Lake Shore", "address2": "", "address3": "", "city": "Chicago", "zip_code": "60605", "country": "US", "state": "IL", "display_address": ["1200 S DuSable Lake Shore", "Chicago, IL 60605"]}, "phone": "+13129392438", "display_phone": "(312) 939-2438", "distance": 10489.136682063854}, {"id": "rzWulqWwBqVOFVEa8sdaiQ", "alias": "chicago-cultural-center-chicago", "name": "Chicago Cultural Center", "image_url": "https://s3-media1.fl.yelpcdn.com/bphoto/z_C_NK-uAWdtfWK6yhsD5A/o.jpg", "is_closed": false, "url": "https://www.yelp.com/biz/chicago-cultural-center-chicago?adjust_creative=dMFM0G7PB1QaTw51VlEhfg&utm_campaign=yelp_api_v3&utm_medium=api_v3_business_search&utm_source=dMFM0G7PB1QaTw51VlEhfg", "review_count": 447, "categories": [{"alias": "culturalcenter", "title": "Cultural Center"}], "rating": 4.5, "coordinates": {"latitude": 41.883771, "longitude": -87.6249639}, "transactions": [], "location": {"address1": "78 E Washington St", "address2": "", "address3": "", "city": "Chicago", "zip_code": "60602", "country": "US", "state": "IL", "display_address": ["78 E Washington St", "Chicago, IL 60602"]}, "phone": "+13127443316", "display_phone": "(312) 744-3316", "distance": 10522.824642567764}, {"id": "UB6XDuHepJ-ufzsBBcGXKQ", "alias": "field-museum-chicago-5", "name": "Field Museum", "image_url": "https://s3-media4.fl.yelpcdn.com/bphoto/CBgJ3W4IvBIO5b1tzWxKcA/o.jpg", "is_closed": false, "url": "https://www.yelp.com/biz/field-museum-chicago-5?adjust_creative=dMFM0G7PB1QaTw51VlEhfg&utm_campaign=yelp_api_v3&utm_medium=api_v3_business_search&utm_source=dMFM0G7PB1QaTw51VlEhfg", "review_count": 1348, "categories": [{"alias": "museums", "title": "Museums"}], "rating": 4.0, "coordinates": {"latitude": 41.8654462216207, "longitude": -87.6170827596939}, "transactions": [], "location": {"address1": "1400 S Lake Shore Dr", "address2": "", "address3": "", "city": "Chicago", "zip_code": "60605", "country": "US", "state": "IL", "display_address": ["1400 S Lake Shore Dr", "Chicago, IL 60605"]}, "phone": "+13126657669", "display_phone": "(312) 665-7669", "distance": 10167.190848671267}, {"id": "FCWU8ztGXQgCrmiasdcCKQ", "alias": "indiana-dunes-state-park-chesterton-4", "name": "Indiana Dunes State Park", "image_url": "https://s3-media1.fl.yelpcdn.com/bphoto/XSElYJ22No6u7f5D3rZoeA/o.jpg", "is_closed": false, "url": "https://www.yelp.com/biz/indiana-dunes-state-park-chesterton-4?adjust_creative=dMFM0G7PB1QaTw51VlEhfg&utm_campaign=yelp_api_v3&utm_medium=api_v3_business_search&utm_source=dMFM0G7PB1QaTw51VlEhfg", "review_count": 174, "categories": [{"alias": "parks", "title": "Parks"}, {"alias": "beaches", "title": "Beaches"}, {"alias": "hiking", "title": "Hiking"}], "rating": 4.0, "coordinates": {"latitude": 41.659332571969486, "longitude": -87.0629488075625}, "transactions": [], "location": {"address1": "1600 N 25th E", "address2": "", "address3": "", "city": "Chesterton", "zip_code": "46304", "country": "US", "state": "IN", "display_address": ["1600 N 25th E", "Chesterton, IN 46304"]}, "phone": "+12199261952", "display_phone": "(219) 926-1952", "distance": 58680.19476178055}, {"id": "AYzsKwkPoUFXrdAxC77JQg", "alias": "chicago-botanic-garden-glencoe", "name": "Chicago Botanic Garden", "image_url": "https://s3-media2.fl.yelpcdn.com/bphoto/C62IPNMIyUaGeoAMEDoIXw/o.jpg", "is_closed": false, "url": "https://www.yelp.com/biz/chicago-botanic-garden-glencoe?adjust_creative=dMFM0G7PB1QaTw51VlEhfg&utm_campaign=yelp_api_v3&utm_medium=api_v3_business_search&utm_source=dMFM0G7PB1QaTw51VlEhfg", "review_count": 1020, "categories": [{"alias": "museums", "title": "Museums"}, {"alias": "gardens", "title": "Botanical Gardens"}], "rating": 4.5, "coordinates": {"latitude": 42.14897024106948, "longitude": -87.78980732795314}, "transactions": [], "location": {"address1": "1000 Lake Cook Rd", "address2": "", "address3": "", "city": "Glencoe", "zip_code": "60022", "country": "US", "state": "IL", "display_address": ["1000 Lake Cook Rd", "Glencoe, IL 60022"]}, "phone": "+18478355440", "display_phone": "(847) 835-5440", "distance": 35575.43555938857}, {"id": "9dSzFbsWrt0xxV1dAYLKmA", "alias": "willowbrook-wildlife-center-glen-ellyn", "name": "Willowbrook Wildlife Center", "image_url": "https://s3-media3.fl.yelpcdn.com/bphoto/x3i0eSeOqMqrYVWoY1NlhQ/o.jpg", "is_closed": false, "url": "https://www.yelp.com/biz/willowbrook-wildlife-center-glen-ellyn?adjust_creative=dMFM0G7PB1QaTw51VlEhfg&utm_campaign=yelp_api_v3&utm_medium=api_v3_business_search&utm_source=dMFM0G7PB1QaTw51VlEhfg", "review_count": 53, "categories": [{"alias": "zoos", "title": "Zoos"}], "rating": 4.5, "coordinates": {"latitude": 41.84288, "longitude": -88.06033}, "transactions": [], "location": {"address1": "525 S Park Blvd", "address2": "", "address3": "", "city": "Glen Ellyn", "zip_code": "60137", "country": "US", "state": "IL", "display_address": ["525 S Park Blvd", "Glen Ellyn, IL 60137"]}, "phone": "+16309426200", "display_phone": "(630) 942-6200", "distance": 27398.713738826027}, {"id": "ekUjqMrGrvw4y8vSfOIzOg", "alias": "skydeck-chicago", "name": "Skydeck", "image_url": "https://s3-media2.fl.yelpcdn.com/bphoto/G1arzSTwq2j1890EwG0VGg/o.jpg", "is_closed": false, "url": "https://www.yelp.com/biz/skydeck-chicago?adjust_creative=dMFM0G7PB1QaTw51VlEhfg&utm_campaign=yelp_api_v3&utm_medium=api_v3_business_search&utm_source=dMFM0G7PB1QaTw51VlEhfg", "review_count": 792, "categories": [{"alias": "observatories", "title": "Observatories"}, {"alias": "venues", "title": "Venues & Event Spaces"}, {"alias": "landmarks", "title": "Landmarks & Historical Buildings"}], "rating": 3.5, "coordinates": {"latitude": 41.8788808, "longitude": -87.63591516658072}, "transactions": [], "location": {"address1": "233 S Wacker Dr", "address2": "Fl 103", "address3": "", "city": "Chicago", "zip_code": "60606", "country": "US", "state": "IL", "display_address": ["233 S Wacker Dr", "Fl 103", "Chicago, IL 60606"]}, "phone": "+13128759447", "display_phone": "(312) 875-9447", "distance": 9466.481562302411}, {"id": "5s9ntZVD45n2CxboZnLbSg", "alias": "the-cloud-gate-chicago", "name": "The Cloud Gate", "image_url": "https://s3-media1.fl.yelpcdn.com/bphoto/bLNnEIV4-ue_A4JWmHse-g/o.jpg", "is_closed": false, "url": "https://www.yelp.com/biz/the-cloud-gate-chicago?adjust_creative=dMFM0G7PB1QaTw51VlEhfg&utm_campaign=yelp_api_v3&utm_medium=api_v3_business_search&utm_source=dMFM0G7PB1QaTw51VlEhfg", "review_count": 875, "categories": [{"alias": "publicart", "title": "Public Art"}], "rating": 4.5, "coordinates": {"latitude": 41.8834, "longitude": -87.62246}, "transactions": [], "location": {"address1": "201 E Randolph St", "address2": "", "address3": "", "city": "Chicago", "zip_code": "60602", "country": "US", "state": "IL", "display_address": ["201 E Randolph St", "Chicago, IL 60602"]}, "phone": "+13127421168", "display_phone": "(312) 742-1168", "distance": 10572.900533752641}, {"id": "5RGtrijqdZsbw0861RMSlw", "alias": "navy-pier-chicago", "name": "Navy Pier", "image_url": "https://s3-media4.fl.yelpcdn.com/bphoto/fQAR8Kb8kX-p544Oyi3q-A/o.jpg", "is_closed": false, "url": "https://www.yelp.com/biz/navy-pier-chicago?adjust_creative=dMFM0G7PB1QaTw51VlEhfg&utm_campaign=yelp_api_v3&utm_medium=api_v3_business_search&utm_source=dMFM0G7PB1QaTw51VlEhfg", "review_count": 1362, "categories": [{"alias": "landmarks", "title": "Landmarks & Historical Buildings"}], "rating": 3.5, "coordinates": {"latitude": 41.891636, "longitude": -87.605326}, "transactions": [], "location": {"address1": "600 E Grand Ave", "address2": "", "address3": "", "city": "Chicago", "zip_code": "60611", "country": "US", "state": "IL", "display_address": ["600 E Grand Ave", "Chicago, IL 60611"]}, "phone": "+13125957437", "display_phone": "(312) 595-7437", "distance": 12363.141841600596}, {"id": "RQmbLZvI7XyFQd2JgNDVig", "alias": "lincoln-park-zoo-chicago-3", "name": "Lincoln Park Zoo", "image_url": "https://s3-media2.fl.yelpcdn.com/bphoto/FXADXjKk-jARKTFceW-j7A/o.jpg", "is_closed": false, "url": "https://www.yelp.com/biz/lincoln-park-zoo-chicago-3?adjust_creative=dMFM0G7PB1QaTw51VlEhfg&utm_campaign=yelp_api_v3&utm_medium=api_v3_business_search&utm_source=dMFM0G7PB1QaTw51VlEhfg", "review_count": 1427, "categories": [{"alias": "zoos", "title": "Zoos"}], "rating": 4.5, "coordinates": {"latitude": 41.9217039770791, "longitude": -87.63363896090308}, "transactions": [], "location": {"address1": "2001 N Clark St", "address2": "", "address3": "", "city": "Chicago", "zip_code": "60614", "country": "US", "state": "IL", "display_address": ["2001 N Clark St", "Chicago, IL 60614"]}, "phone": "+13127422000", "display_phone": "(312) 742-2000", "distance": 12841.531206125648}, {"id": "lrYz3aS2UgC-oFnvWiQDkw", "alias": "the-magnificent-mile-chicago", "name": "The Magnificent Mile", "image_url": "https://s3-media3.fl.yelpcdn.com/bphoto/7OUrDAdT8Z_UWXb6Igu8bQ/o.jpg", "is_closed": false, "url": "https://www.yelp.com/biz/the-magnificent-mile-chicago?adjust_creative=dMFM0G7PB1QaTw51VlEhfg&utm_campaign=yelp_api_v3&utm_medium=api_v3_business_search&utm_source=dMFM0G7PB1QaTw51VlEhfg", "review_count": 191, "categories": [{"alias": "localflavor", "title": "Local Flavor"}], "rating": 4.5, "coordinates": {"latitude": 41.893104, "longitude": -87.623677}, "transactions": [], "location": {"address1": "625 N Michigan Ave", "address2": null, "address3": "", "city": "Chicago", "zip_code": "60610", "country": "US", "state": "IL", "display_address": ["625 N Michigan Ave", "Chicago, IL 60610"]}, "phone": "+13124095560", "display_phone": "(312) 409-5560", "distance": 11208.600469471856}, {"id": "n9IspWC-5FfRA0fPyBZbjg", "alias": "adler-after-dark-chicago", "name": "Adler After Dark", "image_url": "https://s3-media1.fl.yelpcdn.com/bphoto/rAEKXgQN77wuPIP34liUkg/o.jpg", "is_closed": false, "url": "https://www.yelp.com/biz/adler-after-dark-chicago?adjust_creative=dMFM0G7PB1QaTw51VlEhfg&utm_campaign=yelp_api_v3&utm_medium=api_v3_business_search&utm_source=dMFM0G7PB1QaTw51VlEhfg", "review_count": 11, "categories": [{"alias": "museums", "title": "Museums"}], "rating": 3.5, "coordinates": {"latitude": 41.8664568, "longitude": -87.6192535}, "transactions": [], "location": {"address1": "1300 S Lake Shore Dr", "address2": "", "address3": "", "city": "Chicago", "zip_code": "60605", "country": "US", "state": "IL", "display_address": ["1300 S Lake Shore Dr", "Chicago, IL 60605"]}, "phone": "+13129227827", "display_phone": "(312) 922-7827", "distance": 10042.332499314296}], "total": 1800, "region": {"center": {"longitude": -87.7313232421875, "latitude": 41.83199898890945}}}